uri,geo_long,geo_lat,owl_sameAs,om_tipoMonumento,rdfs_label,om_tieneEnlaceSIG,schema_address_addressLocality,schema_address_addressCountry
http://opendata.caceres.es/recurso/turismo/monumentos/Monumento/23-concatedral-de-santa-maria,-6.37004029561,39.4745659792,http://opendata.caceres.es/recurso/cultura-ocio/religion/CentroReligioso/26-concatedral-de-santa-maria,Concatedral,Concatedral de Santa Maria,http://sig.caceres.es/serweb/fichasig/fichatoponimia.php?mslink=1163,Cáceres,ES
http://opendata.caceres.es/recurso/turismo/monumentos/Monumento/24-convento-de-san-pablo,-6.37070179188,39.4728161337,http://opendata.caceres.es/recurso/cultura-ocio/religion/CentroReligioso/24-convento-de-san-pablo,Convento,Convento de San Pablo,http://sig.caceres.es/serweb/fichasig/fichatoponimia.php?mslink=1158,Cáceres,ES
http://opendata.caceres.es/recurso/turismo/monumentos/Monumento/25-convento-de-santa-clara,-6.37163671558,39.4716135636,http://opendata.caceres.es/recurso/cultura-ocio/religion/CentroReligioso/23-convento-de-santa-clara,Convento,Convento de Santa Clara,http://sig.caceres.es/serweb/fichasig/fichatoponimia.php?mslink=1162,Cáceres,ES
http://opendata.caceres.es/recurso/turismo/monumentos/Monumento/33-ermita-de-la-paz,-6.37101887194,39.4750636957,http://opendata.caceres.es/recurso/cultura-ocio/religion/CentroReligioso/38-ermita-de-la-paz,Ermita,Ermita de la Paz,http://sig.caceres.es/serweb/fichasig/fichatoponimia.php?mslink=1160,Cáceres,ES
http://opendata.caceres.es/recurso/turismo/monumentos/Monumento/34-ermita-de-la-soledad,-6.37205636046,39.4716104835,http://opendata.caceres.es/recurso/cultura-ocio/religion/CentroReligioso/22-ermita-de-la-soledad,Ermita,Ermita de la Soledad,http://sig.caceres.es/serweb/fichasig/fichatoponimia.php?mslink=1164,Cáceres,ES
http://opendata.caceres.es/recurso/turismo/monumentos/Monumento/36-iglesia-san-francisco-javier,-6.37036049471,39.4735948906,http://opendata.caceres.es/recurso/cultura-ocio/religion/CentroReligioso/25-iglesia-san-francisco-javier,Iglesia,Iglesia San Francisco Javier,http://sig.caceres.es/serweb/fichasig/fichatoponimia.php?mslink=1159,Cáceres,ES
http://opendata.caceres.es/recurso/turismo/monumentos/Monumento/38-iglesia-san-mateo,-6.37094898679,39.4732282086,http://opendata.caceres.es/recurso/cultura-ocio/religion/CentroReligioso/49-iglesia-san-mateo,Iglesia,Iglesia San Mateo,http://sig.caceres.es/serweb/fichasig/fichatoponimia.php?mslink=1157,Cáceres,ES
http://opendata.caceres.es/recurso/turismo/monumentos/Monumento/39-iglesia-santiago,-6.36913879989,39.4761554448,http://opendata.caceres.es/recurso/cultura-ocio/religion/CentroReligioso/48-iglesia-santiago,Iglesia,Iglesia Santiago,http://sig.caceres.es/serweb/fichasig/fichatoponimia.php?mslink=1166,Cáceres,ES
http://opendata.caceres.es/recurso/turismo/monumentos/Monumento/40-iglesia-santo-domingo,-6.37203553366,39.4764405241,http://opendata.caceres.es/recurso/cultura-ocio/religion/CentroReligioso/46-iglesia-santo-domingo,Iglesia,Iglesia Santo Domingo,http://sig.caceres.es/serweb/fichasig/fichatoponimia.php?mslink=1167,Cáceres,ES
http://opendata.caceres.es/recurso/turismo/monumentos/Monumento/0-arco-de-la-estrella,-6.37101106018,39.4749415554,,Arco,Arco de la Estrella,http://sig.caceres.es/serweb/fichasig/fichatoponimia.php?mslink=1221,Cáceres,ES
http://opendata.caceres.es/recurso/turismo/monumentos/Monumento/1-arco-de-santa-ana,-6.37216308654,39.473602843,,Arco,Arco de Santa Ana,http://sig.caceres.es/serweb/fichasig/fichatoponimia.php?mslink=2106,Cáceres,ES
http://opendata.caceres.es/recurso/turismo/monumentos/Monumento/10-casa-de-los-paredes-saavedra,-6.37131542074,39.4725916728,,Casa,Casa de los Paredes Saavedra,http://sig.caceres.es/serweb/fichasig/fichatoponimia.php?mslink=1205,Cáceres,ES
http://opendata.caceres.es/recurso/turismo/monumentos/Monumento/100-palacio-del-comendador-de-alcuescar,-6.37174547311,39.4726428429,,Palacio,Palacio del Comendador de Alcuescar,http://sig.caceres.es/serweb/fichasig/fichatoponimia.php?mslink=1204,Cáceres,ES
http://opendata.caceres.es/recurso/turismo/monumentos/Monumento/101-palacio-enfermeria-de-san-antonio,-6.3722472111,39.4725687605,,Palacio,Palacio Enfermeria de San Antonio,http://sig.caceres.es/serweb/fichasig/fichatoponimia.php?mslink=1208,Cáceres,ES
http://opendata.caceres.es/recurso/turismo/monumentos/Monumento/102-palacio-episcopal,-6.37056530961,39.4748334062,,Palacio,Palacio Episcopal,http://sig.caceres.es/serweb/fichasig/fichatoponimia.php?mslink=1168,Cáceres,ES
http://opendata.caceres.es/recurso/turismo/monumentos/Monumento/103-palacio-hospital-de-los-caballeros,-6.37185150651,39.4722925904,,Palacio,Palacio Hospital de los Caballeros,http://sig.caceres.es/serweb/fichasig/fichatoponimia.php?mslink=1207,Cáceres,ES
http://opendata.caceres.es/recurso/turismo/monumentos/Monumento/104-palacio-solar-de-los-ulloa,-6.37128500455,39.4727354122,,Palacio,Palacio Solar de los Ulloa,http://sig.caceres.es/serweb/fichasig/fichatoponimia.php?mslink=1202,Cáceres,ES
http://opendata.caceres.es/recurso/turismo/monumentos/Monumento/105-torre-adosada,-6.36967020769,39.4722722278,,Torre,Torre Adosada,http://sig.caceres.es/serweb/fichasig/fichatoponimia.php?mslink=1210,Cáceres,ES
http://opendata.caceres.es/recurso/turismo/monumentos/Monumento/106-torre-albarrana,-6.3698331122,39.4720404483,,Torre,Torre Albarrana,http://sig.caceres.es/serweb/fichasig/fichatoponimia.php?mslink=1211,Cáceres,ES
http://opendata.caceres.es/recurso/turismo/monumentos/Monumento/107-torre-de-aver,-6.37260858249,39.4729842036,,Torre,Torre de Aver,http://sig.caceres.es/serweb/fichasig/fichatoponimia.php?mslink=1223,Cáceres,ES
http://opendata.caceres.es/recurso/turismo/monumentos/Monumento/108-torre-de-bujaco,-6.37096898716,39.4751941358,,Torre,Torre de Bujaco,http://sig.caceres.es/serweb/fichasig/fichatoponimia.php?mslink=1196,Cáceres,ES
http://opendata.caceres.es/recurso/turismo/monumentos/Monumento/109-torre-de-caleros,-6.36874157095,39.4741924581,,Torre,Torre de Caleros,http://sig.caceres.es/serweb/fichasig/fichatoponimia.php?mslink=1214,Cáceres,ES
http://opendata.caceres.es/recurso/turismo/monumentos/Monumento/11-casa-de-los-ribera,-6.3712626104,39.4742560994,,Casa,Casa de los Ribera,http://sig.caceres.es/serweb/fichasig/fichatoponimia.php?mslink=1187,Cáceres,ES
http://opendata.caceres.es/recurso/turismo/monumentos/Monumento/110-torre-de-carvajal,-6.36977553316,39.4746653532,,Torre,Torre de Carvajal,http://sig.caceres.es/serweb/fichasig/fichatoponimia.php?mslink=1183,Cáceres,ES
http://opendata.caceres.es/recurso/turismo/monumentos/Monumento/111-torre-de-espaderos,-6.36978343575,39.4751953028,,Torre,Torre de Espaderos,http://sig.caceres.es/serweb/fichasig/fichatoponimia.php?mslink=1180,Cáceres,ES
http://opendata.caceres.es/recurso/turismo/monumentos/Monumento/112-torre-de-la-hierba,-6.37149542656,39.4745731348,,Torre,Torre de la Hierba,http://sig.caceres.es/serweb/fichasig/fichatoponimia.php?mslink=1195,Cáceres,ES
http://opendata.caceres.es/recurso/turismo/monumentos/Monumento/113-torre-de-la-puerta-del-concejo,-6.36904907193,39.4732966356,,Torre,Torre de la Puerta del Concejo,http://sig.caceres.es/serweb/fichasig/fichatoponimia.php?mslink=1212,Cáceres,ES
http://opendata.caceres.es/recurso/turismo/monumentos/Monumento/114-torre-de-las-ciguenas,-6.3707592376,39.4731071209,,Torre,Torre de las Cigueñas,http://sig.caceres.es/serweb/fichasig/fichatoponimia.php?mslink=1200,Cáceres,ES
http://opendata.caceres.es/recurso/turismo/monumentos/Monumento/115-torre-de-los-pozos-o-del-gitano,-6.36919471844,39.4723939829,,Torre,Torre de los Pozos o del Gitano,http://sig.caceres.es/serweb/fichasig/fichatoponimia.php?mslink=1209,Cáceres,ES
http://opendata.caceres.es/recurso/turismo/monumentos/Monumento/116-torre-de-los-pulpitos,-6.37129009425,39.4748008545,,Torre,Torre de los Pulpitos,http://sig.caceres.es/serweb/fichasig/fichatoponimia.php?mslink=1220,Cáceres,ES
http://opendata.caceres.es/recurso/turismo/monumentos/Monumento/117-torre-de-los-sande,-6.37120283837,39.4732977204,,Torre,Torre de los Sande,http://sig.caceres.es/serweb/fichasig/fichatoponimia.php?mslink=1199,Cáceres,ES
http://opendata.caceres.es/recurso/turismo/monumentos/Monumento/118-torre-de-merida-este,-6.37109929022,39.4719748672,,Torre,Torre de Merida-Este,http://sig.caceres.es/serweb/fichasig/fichatoponimia.php?mslink=1216,Cáceres,ES
http://opendata.caceres.es/recurso/turismo/monumentos/Monumento/119-torre-de-merida-oeste,-6.37152040237,39.4720900734,,Torre,Torre de Merida-Oeste,http://sig.caceres.es/serweb/fichasig/fichatoponimia.php?mslink=1217,Cáceres,ES
http://opendata.caceres.es/recurso/turismo/monumentos/Monumento/12-casa-de-los-sanchez-paredes,-6.37146899144,39.4722214831,,Casa,Casa de los Sanchez Paredes,http://sig.caceres.es/serweb/fichasig/fichatoponimia.php?mslink=1206,Cáceres,ES
http://opendata.caceres.es/recurso/turismo/monumentos/Monumento/120-torre-del-cristo,-6.36901922407,39.473507363,,Torre,Torre del Cristo,http://sig.caceres.es/serweb/fichasig/fichatoponimia.php?mslink=1228,Cáceres,ES
http://opendata.caceres.es/recurso/turismo/monumentos/Monumento/121-torre-del-horno,-6.371834694,39.4740824679,,Torre,Torre del Horno,http://sig.caceres.es/serweb/fichasig/fichatoponimia.php?mslink=1193,Cáceres,ES
http://opendata.caceres.es/recurso/turismo/monumentos/Monumento/122-torre-del-postigo,-6.37228732877,39.4736915962,,Torre,Torre del Postigo,http://sig.caceres.es/serweb/fichasig/fichatoponimia.php?mslink=1222,Cáceres,ES
http://opendata.caceres.es/recurso/turismo/monumentos/Monumento/123-torre-del-rey,-6.36981945687,39.4755340084,,Torre,Torre del Rey,http://sig.caceres.es/serweb/fichasig/fichatoponimia.php?mslink=1179,Cáceres,ES
http://opendata.caceres.es/recurso/turismo/monumentos/Monumento/124-torre-mochada,-6.37048249658,39.4718312506,,Torre,Torre Mochada,http://sig.caceres.es/serweb/fichasig/fichatoponimia.php?mslink=1218,Cáceres,ES
http://opendata.caceres.es/recurso/turismo/monumentos/Monumento/125-torre-ochavada,-6.36864974919,39.4745709881,,Torre,Torre Ochavada,http://sig.caceres.es/serweb/fichasig/fichatoponimia.php?mslink=1213,Cáceres,ES
http://opendata.caceres.es/recurso/turismo/monumentos/Monumento/126-torre-redonda,-6.37286341899,39.472337619,,Torre,Torre Redonda,http://sig.caceres.es/serweb/fichasig/fichatoponimia.php?mslink=1219,Cáceres,ES
http://opendata.caceres.es/recurso/turismo/monumentos/Monumento/127-monumento-plaza-de-toros,-6.37580664625,39.4802883308,,Monumento,Monumento Plaza de Toros,http://sig.caceres.es/serweb/fichasig/fichatoponimia.php?mslink=1232,Cáceres,ES
http://opendata.caceres.es/recurso/turismo/monumentos/Monumento/128-palacio-de-los-duran-de-la-rocha,-6.36984939545,39.4737452983,,Palacio,Palacio de los Durán de la Rocha,http://sig.caceres.es/serweb/fichasig/fichatoponimia.php?mslink=10740,Cáceres,ES
http://opendata.caceres.es/recurso/turismo/monumentos/Monumento/129-escultura-cuidados-de-enfermeria,-6.37032109068,39.4688568579,,Escultura,Escultura Cuidados de Enfermería,http://sig.caceres.es/serweb/fichasig/fichatoponimia.php?mslink=10764,Cáceres,ES
http://opendata.caceres.es/recurso/turismo/monumentos/Monumento/13-casa-de-moraga,-6.37065113372,39.4743856259,,Casa,Casa de Moraga,http://sig.caceres.es/serweb/fichasig/fichatoponimia.php?mslink=1186,Cáceres,ES
http://opendata.caceres.es/recurso/turismo/monumentos/Monumento/130-escultura-alfonso-ix,-6.38605214151,39.4675637927,,Escultura,Escultura Alfonso IX,http://sig.caceres.es/serweb/fichasig/fichatoponimia.php?mslink=2084,Cáceres,ES
http://opendata.caceres.es/recurso/turismo/monumentos/Monumento/131-escultura-cuidados-de-enfermeria,-6.3780514134,39.4633072979,,Escultura,Escultura Cuidados de Enfermería,http://sig.caceres.es/serweb/fichasig/fichatoponimia.php?mslink=10764,Cáceres,ES
http://opendata.caceres.es/recurso/turismo/monumentos/Monumento/132-edificio-singular-el-refugio,-6.36829835715,39.4793814553,,Edificio Singular,Edificio Singular El Refugio,http://sig.caceres.es/serweb/fichasig/fichatoponimia.php?mslink=1234,Cáceres,ES
http://opendata.caceres.es/recurso/turismo/monumentos/Monumento/133-edificio-singular-el-embarcadero,-6.39084293827,39.4469499279,,Edificio Singular,Edificio Singular El Embarcadero,http://sig.caceres.es/serweb/fichasig/fichatoponimia.php?mslink=1238,Cáceres,ES
http://opendata.caceres.es/recurso/turismo/monumentos/Monumento/134-edificio-singular-recinto-hipico,-6.3720720227,39.4418532502,,Edificio Singular,Edificio Singular Recinto Hipico,http://sig.caceres.es/serweb/fichasig/fichatoponimia.php?mslink=1239,Cáceres,ES
http://opendata.caceres.es/recurso/turismo/monumentos/Monumento/135-edificio-singular-pistas-de-hipica,-6.37210395756,39.441835261,,Edificio Singular,Edificio Singular Pistas de Hipica,http://sig.caceres.es/serweb/fichasig/fichatoponimia.php?mslink=1240,Cáceres,ES
http://opendata.caceres.es/recurso/turismo/monumentos/Monumento/136-edificio-singular-casa-huerta-del-conde,-6.36696060982,39.4624370303,,Edificio Singular,Edificio Singular Casa Huerta del Conde,http://sig.caceres.es/serweb/fichasig/fichatoponimia.php?mslink=1233,Cáceres,ES
http://opendata.caceres.es/recurso/turismo/monumentos/Monumento/137-edificio-singular-kiosko-plaza-italia,-6.37700514964,39.4763844221,,Edificio Singular,Edificio Singular Kiosko Plaza Italia,http://sig.caceres.es/serweb/fichasig/fichatoponimia.php?mslink=2110,Cáceres,ES
http://opendata.caceres.es/recurso/turismo/monumentos/Monumento/138-edificio-singular-kiosco-de-la-musica-el-bombo,-6.37811227177,39.470483365,,Edificio Singular,"Edificio Singular Kiosco de la Musica ""El Bombo""",http://sig.caceres.es/serweb/fichasig/fichatoponimia.php?mslink=1236,Cáceres,ES
http://opendata.caceres.es/recurso/turismo/monumentos/Monumento/139-edificio-singular-chalet-de-los-malaga,-6.37677755225,39.4712464042,,Edificio Singular,Edificio Singular Chalet de los Malaga,http://sig.caceres.es/serweb/fichasig/fichatoponimia.php?mslink=1237,Cáceres,ES
http://opendata.caceres.es/recurso/turismo/monumentos/Monumento/14-casa-de-ovando-aldana,-6.37120754244,39.4736575903,,Casa,Casa de Ovando Aldana,http://sig.caceres.es/serweb/fichasig/fichatoponimia.php?mslink=1189,Cáceres,ES
http://opendata.caceres.es/recurso/turismo/monumentos/Monumento/140-edificio-singular-delegacion-de-economia-y-hacienda-antiguo-banco-de-espana,-6.3794339593,39.4728361431,,Edificio Singular,Edificio Singular Delegacion de Economia y Hacienda (antiguo Banco de España),http://sig.caceres.es/serweb/fichasig/fichatoponimia.php?mslink=1241,Cáceres,ES
http://opendata.caceres.es/recurso/turismo/monumentos/Monumento/141-edificio-singular-antigua-nave-minera,-6.38920790072,39.4457883656,,Edificio Singular,Edificio Singular Antigua Nave Minera,http://sig.caceres.es/serweb/fichasig/fichatoponimia.php?mslink=2075,Cáceres,ES
http://opendata.caceres.es/recurso/turismo/monumentos/Monumento/142-edificio-singular-kiosco-de-la-musica-san-jorge,-6.3641497571,39.4851907382,,Edificio Singular,Edificio Singular Kiosco de la Musica San Jorge,http://sig.caceres.es/serweb/fichasig/fichatoponimia.php?mslink=2404,Cáceres,ES
http://opendata.caceres.es/recurso/turismo/monumentos/Monumento/143-edificio-singular-kiosco-de-la-musica-fernando-turegano,-6.36687649636,39.4866314591,,Edificio Singular,Edificio Singular Kiosco de la Musica Fernando Turegano,http://sig.caceres.es/serweb/fichasig/fichatoponimia.php?mslink=2405,Cáceres,ES
http://opendata.caceres.es/recurso/turismo/monumentos/Monumento/144-edificio-singular-ruina-parque-rio-tinto,-6.39272735474,39.4455031678,,Edificio Singular,Edificio Singular Ruina Parque Rio Tinto,http://sig.caceres.es/serweb/fichasig/fichatoponimia.php?mslink=2469,Cáceres,ES
http://opendata.caceres.es/recurso/turismo/monumentos/Monumento/145-edificio-singular-garaje-2-0,-6.39015456656,39.4460831708,,Edificio Singular,Edificio Singular Garaje 2.0,http://sig.caceres.es/serweb/fichasig/fichatoponimia.php?mslink=2465,Cáceres,ES
http://opendata.caceres.es/recurso/turismo/monumentos/Monumento/146-edificio-singular-el-madruelo,-6.36723563718,39.4763580638,,Edificio Singular,Edificio Singular El Madruelo,http://sig.caceres.es/serweb/fichasig/fichatoponimia.php?mslink=132,Cáceres,ES
http://opendata.caceres.es/recurso/turismo/monumentos/Monumento/147-edificio-singular-puente-avenida-de-la-constitucion,-6.39174387403,39.4479746387,,Edificio Singular,Edificio Singular Puente Avenida de la Constitucion,http://sig.caceres.es/serweb/fichasig/fichatoponimia.php?mslink=2474,Cáceres,ES
http://opendata.caceres.es/recurso/turismo/monumentos/Monumento/15-casa-de-pereros,-6.37100400838,39.4721632488,,Casa,Casa de Pereros,http://sig.caceres.es/serweb/fichasig/fichatoponimia.php?mslink=1215,Cáceres,ES
http://opendata.caceres.es/recurso/turismo/monumentos/Monumento/16-casa-del-aguila,-6.37107855527,39.473451403,,Casa,Casa del Aguila,http://sig.caceres.es/serweb/fichasig/fichatoponimia.php?mslink=1190,Cáceres,ES
http://opendata.caceres.es/recurso/turismo/monumentos/Monumento/17-casa-del-marques-de-camarena,-6.37250785266,39.475737935,,Casa,Casa del Marques de Camarena,http://sig.caceres.es/serweb/fichasig/fichatoponimia.php?mslink=1175,Cáceres,ES
http://opendata.caceres.es/recurso/turismo/monumentos/Monumento/18-casa-del-mono-o-de-espadero-pizarro,-6.37094750721,39.4738904381,,Casa,Casa del Mono o de Espadero-Pizarro,http://sig.caceres.es/serweb/fichasig/fichatoponimia.php?mslink=1188,Cáceres,ES
http://opendata.caceres.es/recurso/turismo/monumentos/Monumento/19-casa-del-sol-o-de-los-solis,-6.37082465205,39.4734720098,,Casa,Casa del Sol o de los Solis,http://sig.caceres.es/serweb/fichasig/fichatoponimia.php?mslink=1225,Cáceres,ES
http://opendata.caceres.es/recurso/turismo/monumentos/Monumento/2-arco-del-cristo,-6.3691529449,39.4735142829,,Arco,Arco del Cristo,http://sig.caceres.es/serweb/fichasig/fichatoponimia.php?mslink=1227,Cáceres,ES
http://opendata.caceres.es/recurso/turismo/monumentos/Monumento/20-casa-mudejar,-6.37160182309,39.4735798957,,Casa,Casa Mudejar,http://sig.caceres.es/serweb/fichasig/fichatoponimia.php?mslink=1172,Cáceres,ES
http://opendata.caceres.es/recurso/turismo/monumentos/Monumento/21-casa-ovando-espadero,-6.37322381565,39.4732010042,,Casa,Casa Ovando Espadero,http://sig.caceres.es/serweb/fichasig/fichatoponimia.php?mslink=2108,Cáceres,ES
http://opendata.caceres.es/recurso/turismo/monumentos/Monumento/22-casa-ovando-saavedra,-6.37241496084,39.4737938055,,Casa,Casa Ovando-Saavedra,http://sig.caceres.es/serweb/fichasig/fichatoponimia.php?mslink=2107,Cáceres,ES
http://opendata.caceres.es/recurso/turismo/monumentos/Monumento/26-crucero-de-san-blas,-6.36957092087,39.4795851563,,Crucero,Crucero de San Blas,http://sig.caceres.es/serweb/fichasig/fichatoponimia.php?mslink=10675,Cáceres,ES
http://opendata.caceres.es/recurso/turismo/monumentos/Monumento/27-crucero-de-santa-clara,-6.37154486959,39.4718051065,,Crucero,Crucero de Santa Clara,http://sig.caceres.es/serweb/fichasig/fichatoponimia.php?mslink=1975,Cáceres,ES
http://opendata.caceres.es/recurso/turismo/monumentos/Monumento/28-crucero-del-espiritu-santo,-6.36772735565,39.460750268,,Crucero,Crucero del Espiritu Santo,http://sig.caceres.es/serweb/fichasig/fichatoponimia.php?mslink=10674,Cáceres,ES
http://opendata.caceres.es/recurso/turismo/monumentos/Monumento/29-cueva-cueva-de-maltravieso,-6.37114885508,39.4576276104,,Cueva,Cueva de Maltravieso,http://sig.caceres.es/serweb/fichasig/fichatoponimia.php?mslink=2045,Cáceres,ES
http://opendata.caceres.es/recurso/turismo/monumentos/Monumento/3-arco-puerta-de-coria,-6.36970775891,39.4752641488,,Arco,Arco Puerta de Coria,http://sig.caceres.es/serweb/fichasig/fichatoponimia.php?mslink=2104,Cáceres,ES
http://opendata.caceres.es/recurso/turismo/monumentos/Monumento/30-cueva-de-santa-ana,-6.37064310422,39.4284056847,,Cueva,Cueva de Santa Ana,http://sig.caceres.es/serweb/fichasig/fichatoponimia.php?mslink=10676,Cáceres,ES
http://opendata.caceres.es/recurso/turismo/monumentos/Monumento/31-cueva-del-conejar,-6.36341137497,39.4551479167,,Cueva,Cueva del Conejar,http://sig.caceres.es/serweb/fichasig/fichatoponimia.php?mslink=10645,Cáceres,ES
http://opendata.caceres.es/recurso/turismo/monumentos/Monumento/32-dolmen-de-la-hijadilla,-6.48828424339,39.3853069777,,Dolmen,Dolmen de la Hijadilla,http://sig.caceres.es/serweb/fichasig/fichatoponimia.php?mslink=10679,Cáceres,ES
http://opendata.caceres.es/recurso/turismo/monumentos/Monumento/37-iglesia-san-juan,-6.37347760228,39.4734426808,,Iglesia,Iglesia San Juan,http://sig.caceres.es/serweb/fichasig/fichatoponimia.php?mslink=1165,Cáceres,ES
http://opendata.caceres.es/recurso/turismo/monumentos/Monumento/4-arco-puerta-espiritu-santo,-6.36721685045,39.4628521773,,Puerta,Puerta Puerta Espiritu Santo,http://sig.caceres.es/serweb/fichasig/fichatoponimia.php?mslink=2003,Cáceres,ES
http://opendata.caceres.es/recurso/turismo/monumentos/Monumento/41-escultura-a-la-semana-santa,-6.3738090995,39.4734117463,,Escultura,Escultura a la Semana Santa,http://sig.caceres.es/serweb/fichasig/fichatoponimia.php?mslink=1974,Cáceres,ES
http://opendata.caceres.es/recurso/turismo/monumentos/Monumento/42-escultura-a-las-lavanderas,-6.37682229502,39.4802276322,,Escultura,Escultura a las Lavanderas,http://sig.caceres.es/serweb/fichasig/fichatoponimia.php?mslink=2030,Cáceres,ES
http://opendata.caceres.es/recurso/turismo/monumentos/Monumento/43-escultura-a-los-conquistadores,-6.37387998217,39.4692670003,,Escultura,Escultura a los Conquistadores,http://sig.caceres.es/serweb/fichasig/fichatoponimia.php?mslink=1979,Cáceres,ES
http://opendata.caceres.es/recurso/turismo/monumentos/Monumento/44-escultura-al-redoble,-6.37311287759,39.475560868,,Escultura,Escultura al Redoble,http://sig.caceres.es/serweb/fichasig/fichatoponimia.php?mslink=1971,Cáceres,ES
http://opendata.caceres.es/recurso/turismo/monumentos/Monumento/46-escultura-angelita-capdevielle,-6.37421597277,39.4620369112,,Escultura,Escultura Angelita Capdevielle,http://sig.caceres.es/serweb/fichasig/fichatoponimia.php?mslink=2007,Cáceres,ES
http://opendata.caceres.es/recurso/turismo/monumentos/Monumento/47-monumento-antiguo-horno-de-cal,-6.38309795205,39.4589817525,,Horno,Horno Antiguo Horno de Cal,http://sig.caceres.es/serweb/fichasig/fichatoponimia.php?mslink=2011,Cáceres,ES
http://opendata.caceres.es/recurso/turismo/monumentos/Monumento/48-escultura-argel,-6.37547346855,39.4798367899,,Escultura,Escultura Argel,http://sig.caceres.es/serweb/fichasig/fichatoponimia.php?mslink=2032,Cáceres,ES
http://opendata.caceres.es/recurso/turismo/monumentos/Monumento/49-escultura-cruz-de-los-caidos,-6.37940482016,39.4683786724,,Escultura,Escultura Cruz de los Caidos,http://sig.caceres.es/serweb/fichasig/fichatoponimia.php?mslink=1986,Cáceres,ES
http://opendata.caceres.es/recurso/turismo/monumentos/Monumento/5-casa-casa-del-marques-de-monroy,-6.37359014488,39.4731658146,,Casa,Casa del Marques de Monroy,http://sig.caceres.es/serweb/fichasig/fichatoponimia.php?mslink=2471,Cáceres,ES
http://opendata.caceres.es/recurso/turismo/monumentos/Monumento/50-monumento-cueva-de-la-becerra,-6.38249326596,39.4313019097,,Cueva,Cueva de la Becerra,http://sig.caceres.es/serweb/fichasig/fichatoponimia.php?mslink=2192,Cáceres,ES
http://opendata.caceres.es/recurso/turismo/monumentos/Monumento/52-escultura-de-munoz-chaves,-6.37731267282,39.4715501283,,Escultura,Escultura de Muñoz Chaves,http://sig.caceres.es/serweb/fichasig/fichatoponimia.php?mslink=2051,Cáceres,ES
http://opendata.caceres.es/recurso/turismo/monumentos/Monumento/53-escultura-diosa-ceres,-6.37162618401,39.4745020845,,Escultura,Escultura Diosa Ceres,http://sig.caceres.es/serweb/fichasig/fichatoponimia.php?mslink=1972,Cáceres,ES
http://opendata.caceres.es/recurso/turismo/monumentos/Monumento/54-escultura-donantes-de-sangre,-6.3944400843,39.4693563228,,Escultura,Escultura Donantes de Sangre,http://sig.caceres.es/serweb/fichasig/fichatoponimia.php?mslink=2085,Cáceres,ES
http://opendata.caceres.es/recurso/turismo/monumentos/Monumento/55-escultura-el-ancla,-6.37744002823,39.4717854894,,Escultura,Escultura El Ancla,http://sig.caceres.es/serweb/fichasig/fichatoponimia.php?mslink=2047,Cáceres,ES
http://opendata.caceres.es/recurso/turismo/monumentos/Monumento/56-monumento-foro-de-los-balbos,-6.37154167782,39.4743826431,,Monumento,Monumento Foro de los Balbos,http://sig.caceres.es/serweb/fichasig/fichatoponimia.php?mslink=1194,Cáceres,ES
http://opendata.caceres.es/recurso/turismo/monumentos/Monumento/57-escultura-fratres,-6.37925496629,39.466275485,,Escultura,Escultura Fratres,http://sig.caceres.es/serweb/fichasig/fichatoponimia.php?mslink=2086,Cáceres,ES
http://opendata.caceres.es/recurso/turismo/monumentos/Monumento/58-escultura-gabriel-y-galan,-6.37926497972,39.4690817563,,Escultura,Escultura Gabriel y Galan,http://sig.caceres.es/serweb/fichasig/fichatoponimia.php?mslink=1985,Cáceres,ES
http://opendata.caceres.es/recurso/turismo/monumentos/Monumento/59-escultura-glorieta-v-centenario,-6.40233119032,39.4747122895,,Escultura,Escultura Glorieta V Centenario,http://sig.caceres.es/serweb/fichasig/fichatoponimia.php?mslink=2056,Cáceres,ES
http://opendata.caceres.es/recurso/turismo/monumentos/Monumento/6-casa-de-diego-garcia-de-ulloa,-6.37153430521,39.4729038216,,Casa,Casa de Diego Garcia de Ulloa,http://sig.caceres.es/serweb/fichasig/fichatoponimia.php?mslink=1203,Cáceres,ES
http://opendata.caceres.es/recurso/turismo/monumentos/Monumento/60-escultura-hernan-cortes,-6.37917151038,39.4728364344,,Escultura,Escultura Hernan Cortes,http://sig.caceres.es/serweb/fichasig/fichatoponimia.php?mslink=1983,Cáceres,ES
http://opendata.caceres.es/recurso/turismo/monumentos/Monumento/61-escultura-homenaje-al-minero,-6.38752671655,39.4525437369,,Escultura,Escultura Homenaje al Minero,http://sig.caceres.es/serweb/fichasig/fichatoponimia.php?mslink=2091,Cáceres,ES
http://opendata.caceres.es/recurso/turismo/monumentos/Monumento/62-escultura-llopis-ivorra,-6.37275214967,39.4592304959,,Escultura,Escultura Llopis Ivorra,http://sig.caceres.es/serweb/fichasig/fichatoponimia.php?mslink=2002,Cáceres,ES
http://opendata.caceres.es/recurso/turismo/monumentos/Monumento/63-escultura-luis-alviz,-6.37600998794,39.4798807594,,Escultura,Escultura Luis Alviz,http://sig.caceres.es/serweb/fichasig/fichatoponimia.php?mslink=2031,Cáceres,ES
http://opendata.caceres.es/recurso/turismo/monumentos/Monumento/65-escultura-monumento,-6.40168787951,39.4650972466,,Escultura,Escultura Monumento,http://sig.caceres.es/serweb/fichasig/fichatoponimia.php?mslink=10632,Cáceres,ES
http://opendata.caceres.es/recurso/turismo/monumentos/Monumento/66-escultura-monumento-manuel-de-falla,-6.36355180041,39.4546656521,,Escultura,Escultura Monumento Manuel de Falla,http://sig.caceres.es/serweb/fichasig/fichatoponimia.php?mslink=2459,Cáceres,ES
http://opendata.caceres.es/recurso/turismo/monumentos/Monumento/67-escultura-monumento-victimas-del-terrorismo,-6.38349055556,39.4547125825,,Escultura,Escultura Monumento Victimas del Terrorismo,http://sig.caceres.es/serweb/fichasig/fichatoponimia.php?mslink=2451,Cáceres,ES
http://opendata.caceres.es/recurso/turismo/monumentos/Monumento/68-monumento-muralla-arabe-este,-6.36883251912,39.4744528917,,Monumento,Monumento Muralla Arabe Este,http://sig.caceres.es/serweb/fichasig/fichatoponimia.php?mslink=2101,Cáceres,ES
http://opendata.caceres.es/recurso/turismo/monumentos/Monumento/69-monumento-muralla-arabe-oeste,-6.37166025966,39.4742225272,,Monumento,Monumento Muralla Arabe Oeste,http://sig.caceres.es/serweb/fichasig/fichatoponimia.php?mslink=2103,Cáceres,ES
http://opendata.caceres.es/recurso/turismo/monumentos/Monumento/7-casa-de-los-becerra,-6.37043396151,39.4738688878,,Casa,Casa de los Becerra,http://sig.caceres.es/serweb/fichasig/fichatoponimia.php?mslink=1170,Cáceres,ES
http://opendata.caceres.es/recurso/turismo/monumentos/Monumento/70-monumento-muralla-arabe-sur,-6.37094918154,39.4720129106,,Monumento,Monumento Muralla Arabe Sur,http://sig.caceres.es/serweb/fichasig/fichatoponimia.php?mslink=2102,Cáceres,ES
http://opendata.caceres.es/recurso/turismo/monumentos/Monumento/71-escultura-netzahualcoyotl,-6.37769583447,39.460970143,,Escultura,Escultura Netzahualcoyotl,http://sig.caceres.es/serweb/fichasig/fichatoponimia.php?mslink=1996,Cáceres,ES
http://opendata.caceres.es/recurso/turismo/monumentos/Monumento/72-escultura-pierre-coubertin,-6.37970218718,39.4606235505,,Escultura,Escultura Pierre Coubertin,http://sig.caceres.es/serweb/fichasig/fichatoponimia.php?mslink=1995,Cáceres,ES
http://opendata.caceres.es/recurso/turismo/monumentos/Monumento/73-escultura-pilon-de-san-francisco,-6.36995756539,39.4698111034,,Escultura,Escultura Pilon de San Francisco,http://sig.caceres.es/serweb/fichasig/fichatoponimia.php?mslink=1978,Cáceres,ES
http://opendata.caceres.es/recurso/turismo/monumentos/Monumento/74-monumento-puente-de-la-mocha,-6.34716701612,39.3675317547,,Monumento,Monumento Puente de la Mocha,http://sig.caceres.es/serweb/fichasig/fichatoponimia.php?mslink=2190,Cáceres,ES
http://opendata.caceres.es/recurso/turismo/monumentos/Monumento/75-edificio-singular-puente-de-san-francisco,-6.3700849523,39.4702202671,,Edificio Singular,Edificio Singular Puente San Francisco,http://sig.caceres.es/serweb/fichasig/fichatoponimia.php?mslink=1235,Cáceres,ES
http://opendata.caceres.es/recurso/turismo/monumentos/Monumento/76-puerta-ruta-de-la-plata,-6.39488409312,39.4735644622,,Puerta,Puerta Ruta de la Plata,http://sig.caceres.es/serweb/fichasig/fichatoponimia.php?mslink=2076,Cáceres,ES
http://opendata.caceres.es/recurso/turismo/monumentos/Monumento/77-escultura-roche-sur-yon,-6.39278624997,39.4728376343,,Escultura,Escultura Roche Sur Yon,http://sig.caceres.es/serweb/fichasig/fichatoponimia.php?mslink=2087,Cáceres,ES
http://opendata.caceres.es/recurso/turismo/monumentos/Monumento/78-escultura-san-jorge,-6.37027726729,39.473722858,,Escultura,Escultura San Jorge,http://sig.caceres.es/serweb/fichasig/fichatoponimia.php?mslink=2105,Cáceres,ES
http://opendata.caceres.es/recurso/turismo/monumentos/Monumento/79-escultura-san-pedro-de-alcantara,-6.37033819937,39.4744875946,,Escultura,Escultura San Pedro de Alcántara,http://sig.caceres.es/serweb/fichasig/fichatoponimia.php?mslink=10007,Cáceres,ES
http://opendata.caceres.es/recurso/turismo/monumentos/Monumento/8-casa-de-los-caballos,-6.36975396426,39.4727736097,,Casa,Casa de los Caballos,http://sig.caceres.es/serweb/fichasig/fichatoponimia.php?mslink=1169,Cáceres,ES
http://opendata.caceres.es/recurso/turismo/monumentos/Monumento/80-escultura-senora-leoncia,-6.37380300488,39.4735089832,,Escultura,Escultura Señora Leoncia,http://sig.caceres.es/serweb/fichasig/fichatoponimia.php?mslink=1973,Cáceres,ES
http://opendata.caceres.es/recurso/turismo/monumentos/Monumento/81-palacio-de-carvajal,-6.36983383025,39.474875803,,Palacio,Palacio de Carvajal,http://sig.caceres.es/serweb/fichasig/fichatoponimia.php?mslink=1182,Cáceres,ES
http://opendata.caceres.es/recurso/turismo/monumentos/Monumento/82-palacio-de-galarza,-6.37227677295,39.4760565103,,Palacio,Palacio de Galarza,http://sig.caceres.es/serweb/fichasig/fichatoponimia.php?mslink=1174,Cáceres,ES
http://opendata.caceres.es/recurso/turismo/monumentos/Monumento/83-palacio-de-godoy,-6.36976927325,39.4759876695,,Palacio,Palacio de Godoy,http://sig.caceres.es/serweb/fichasig/fichatoponimia.php?mslink=1178,Cáceres,ES
http://opendata.caceres.es/recurso/turismo/monumentos/Monumento/84-palacio-de-la-audiencia-provincial,-6.37044626462,39.4770789743,,Palacio,Palacio de la Audiencia Provincial,http://sig.caceres.es/serweb/fichasig/fichatoponimia.php?mslink=1231,Cáceres,ES
http://opendata.caceres.es/recurso/turismo/monumentos/Monumento/85-palacio-de-la-generala,-6.37162892511,39.473912265,,Palacio,Palacio de la Generala,http://sig.caceres.es/serweb/fichasig/fichatoponimia.php?mslink=1192,Cáceres,ES
http://opendata.caceres.es/recurso/turismo/monumentos/Monumento/86-palacio-de-la-isla,-6.37303567982,39.4751945721,,Palacio,Palacio de La Isla,http://sig.caceres.es/serweb/fichasig/fichatoponimia.php?mslink=1176,Cáceres,ES
http://opendata.caceres.es/recurso/turismo/monumentos/Monumento/87-palacio-de-las-ciguenas,-6.37064383157,39.473191491,,Palacio,Palacio de las Cigueñas,http://sig.caceres.es/serweb/fichasig/fichatoponimia.php?mslink=1229,Cáceres,ES
http://opendata.caceres.es/recurso/turismo/monumentos/Monumento/88-palacio-de-las-veletas-(aljibe),-6.37027441364,39.4727745658,,Palacio,Palacio de las Veletas (Aljibe),http://sig.caceres.es/serweb/fichasig/fichatoponimia.php?mslink=1201,Cáceres,ES
http://opendata.caceres.es/recurso/turismo/monumentos/Monumento/89-palacio-de-los-condes-de-adanero,-6.37177417143,39.4736766062,,Palacio,Palacio de los Condes de Adanero,http://sig.caceres.es/serweb/fichasig/fichatoponimia.php?mslink=1191,Cáceres,ES
http://opendata.caceres.es/recurso/turismo/monumentos/Monumento/9-casa-de-los-duques-de-valencia,-6.37050676426,39.4742716368,,Casa,Casa de los Duques de Valencia,http://sig.caceres.es/serweb/fichasig/fichatoponimia.php?mslink=1185,Cáceres,ES
http://opendata.caceres.es/recurso/turismo/monumentos/Monumento/90-palacio-de-los-duques-de-abrantes,-6.37084267819,39.4760788069,,Palacio,Palacio de los Duques de Abrantes,http://sig.caceres.es/serweb/fichasig/fichatoponimia.php?mslink=1177,Cáceres,ES
http://opendata.caceres.es/recurso/turismo/monumentos/Monumento/91-palacio-de-los-golfines-de-abajo,-6.36998308022,39.4740510806,,Palacio,Palacio de los Golfines de Abajo,http://sig.caceres.es/serweb/fichasig/fichatoponimia.php?mslink=1184,Cáceres,ES
http://opendata.caceres.es/recurso/turismo/monumentos/Monumento/92-palacio-de-los-golfines-de-arriba,-6.37197698099,39.4732562585,,Palacio,Palacio de los Golfines de Arriba,http://sig.caceres.es/serweb/fichasig/fichatoponimia.php?mslink=1197,Cáceres,ES
http://opendata.caceres.es/recurso/turismo/monumentos/Monumento/93-palacio-de-los-ovando-perero,-6.37192839578,39.472751729,,Palacio,Palacio de los Ovando-Perero,http://sig.caceres.es/serweb/fichasig/fichatoponimia.php?mslink=1224,Cáceres,ES
http://opendata.caceres.es/recurso/turismo/monumentos/Monumento/94-palacio-de-los-saavedra,-6.37144038163,39.4734952158,,Palacio,Palacio de los Saavedra,http://sig.caceres.es/serweb/fichasig/fichatoponimia.php?mslink=1226,Cáceres,ES
http://opendata.caceres.es/recurso/turismo/monumentos/Monumento/95-palacio-de-los-ulloa-roda,-6.37153897213,39.4733488945,,Palacio,Palacio de los Ulloa-Roda,http://sig.caceres.es/serweb/fichasig/fichatoponimia.php?mslink=1198,Cáceres,ES
http://opendata.caceres.es/recurso/turismo/monumentos/Monumento/96-palacio-de-luisa-de-carvajal,-6.37008038893,39.4732949238,,Palacio,Palacio de Luisa de Carvajal,http://sig.caceres.es/serweb/fichasig/fichatoponimia.php?mslink=1230,Cáceres,ES
http://opendata.caceres.es/recurso/turismo/monumentos/Monumento/97-palacio-de-mayoralgo,-6.37062271428,39.4745702769,,Palacio,Palacio de Mayoralgo,http://sig.caceres.es/serweb/fichasig/fichatoponimia.php?mslink=1171,Cáceres,ES
"http://opendata.caceres.es/recurso/turismo/monumentos/Monumento/98-palacio-de-ovando,mogollon,perero-y-paredes",-6.37021674424,39.4749694345,,Palacio,"Palacio de Ovando,Mogollon,Perero y Paredes",http://sig.caceres.es/serweb/fichasig/fichatoponimia.php?mslink=1181,Cáceres,ES
http://opendata.caceres.es/recurso/turismo/monumentos/Monumento/99-palacio-de-toledo-moctezuma,-6.37041431061,39.4754000268,,Palacio,Palacio de Toledo Moctezuma,http://sig.caceres.es/serweb/fichasig/fichatoponimia.php?mslink=1173,Cáceres,ES
