NOM,DOMICILISOCIAL,TELEFON,EMAIL,WEB,CATEGORIA,LATITUD,LONGITUD,LOCATION,ENLLACDIRECTORI,icon
Tallers C.R.A,"carrer montflorit, 135, 08850 Gavà",936336262 689514127,sgf_19872@hotmail.com,,Serveis,41.30668,1.998613,"(41.30668, 1.998613)",http://portals.ajuntament.gava.cat/scdirectorimunicipal/app.html?id=4231,http://continguts.intra.gavaciutat.net/documents/76203/2268237/comerc.png
Dentalcolor,"carrer montflorit, 136 baixos 1ª, 08850 Gavà",936622729 615501571,,http://www.dentalhousegava.com,Salut - Bellesa - Centres esportius,41.30317,2.003213,"(41.30317, 2.003213)",http://portals.ajuntament.gava.cat/scdirectorimunicipal/app.html?id=5254,http://continguts.intra.gavaciutat.net/documents/76203/2268237/serveis.png
Exclusivas Electronicas,"carrer montflorit, 145, 08850 Gavà",936625956 ,danielpla1@hotmail.com,http://www.exclusivaselectronicas.com,Serveis,41.306942,1.998535,"(41.306942, 1.998535)",http://portals.ajuntament.gava.cat/scdirectorimunicipal/app.html?id=4910,http://continguts.intra.gavaciutat.net/documents/76203/2268237/comerc.png
Mon Petit ,"carrer montflorit, 148, 08850 Gavà",936625557 936625557,info@monpetitgava.org,http://www.monpetitgava.es,Serveis,41.307034,1.998517,"(41.307034, 1.998517)",http://portals.ajuntament.gava.cat/scdirectorimunicipal/app.html?id=4911,http://continguts.intra.gavaciutat.net/documents/76203/2268237/comerc.png
Golosinas Sheila,"carrer montflorit, 149, 08850 Gavà", 618728276,,,Alimentació (quotidià alimentari),41.30719,1.998312,"(41.30719, 1.998312)",http://portals.ajuntament.gava.cat/scdirectorimunicipal/app.html?id=3954,http://continguts.intra.gavaciutat.net/documents/76203/2268237/comerc.png
Centro de Día Ohana,"carrer montflorit, 150, 08850 Gavà", 689014336,,,Sense classificar,41.307087,1.998512,"(41.307087, 1.998512)",http://portals.ajuntament.gava.cat/scdirectorimunicipal/app.html?id=5590,http://continguts.intra.gavaciutat.net/documents/76203/2268237/serveis.png
"Santiago Parra, SL","carrer montflorit, 150, 08850 Gavà",936333254 ,,http://www.sparra.com,Serveis,41.307087,1.998512,"(41.307087, 1.998512)",http://portals.ajuntament.gava.cat/scdirectorimunicipal/app.html?id=4321,http://continguts.intra.gavaciutat.net/documents/76203/2268237/comerc.png
Papereria J.M.Sánchez,"carrer montflorit, 150, 08850 Gavà",936620687 606284609,,,Lleure i cultura,41.307087,1.998512,"(41.307087, 1.998512)",http://portals.ajuntament.gava.cat/scdirectorimunicipal/app.html?id=4078,http://continguts.intra.gavaciutat.net/documents/76203/2268237/comerc.png
El Jardín de tu mascota-Perruqueria canina Floristeria El Jardincito,"carrer montflorit, 151, 08850 Gavà",931854473 691030083,ivanenco@hotmail.es,,Equipament de la llar,41.30714,1.998431,"(41.30714, 1.998431)",http://portals.ajuntament.gava.cat/scdirectorimunicipal/app.html?id=5170,http://continguts.intra.gavaciutat.net/documents/76203/2268237/comerc.png
Hobby - Mascotas,"carrer montflorit, 151, 08850 Gavà",936623584 607846069,,,Equipament de la llar,41.30714,1.998431,"(41.30714, 1.998431)",http://portals.ajuntament.gava.cat/scdirectorimunicipal/app.html?id=3967,http://continguts.intra.gavaciutat.net/documents/76203/2268237/comerc.png
Dvinus,"carrer montflorit, 151, 08850 Gavà", 638339856,,,Alimentació (quotidià alimentari),41.30714,1.998431,"(41.30714, 1.998431)",http://portals.ajuntament.gava.cat/scdirectorimunicipal/app.html?id=5543,http://continguts.intra.gavaciutat.net/documents/76203/2268237/comerc.png
"Forn M. Cruz, SL","carrer montflorit, 17, 08850 Gavà",936620168 669588596,,,Alimentació (quotidià alimentari),41.29968,2.002012,"(41.29968, 2.002012)",http://portals.ajuntament.gava.cat/scdirectorimunicipal/app.html?id=3921,http://continguts.intra.gavaciutat.net/documents/76203/2268237/comerc.png
Ferreteria Molero,"carrer montflorit, 183, 08850 Gavà",936623787 ,,,Equipament de la llar,41.308933,1.997446,"(41.308933, 1.997446)",http://portals.ajuntament.gava.cat/scdirectorimunicipal/app.html?id=4732,http://continguts.intra.gavaciutat.net/documents/76203/2268237/comerc.png
r3interiorismo,"carrer montflorit, 33, 08850 Gavà", ,,http://www.r3interiorismo.com,Serveis,41.300774,2.00151,"(41.300774, 2.00151)",http://portals.ajuntament.gava.cat/scdirectorimunicipal/app.html?id=5247,http://continguts.intra.gavaciutat.net/documents/76203/2268237/comerc.png
Farmàcia Pugès,"carrer montflorit, 38, 08850 Gavà",936623113 619152598,rmeseguer@farmaciameseguer.com,http://www.farmaciameseguer.com,Salut i cosmètica  (quotidià no alimentari),41.30284,2.002637,"(41.30284, 2.002637)",http://portals.ajuntament.gava.cat/scdirectorimunicipal/app.html?id=3900,http://continguts.intra.gavaciutat.net/documents/76203/2268237/comerc.png
NORDIC WALKING GAVA ,"carrer montflorit, 5, 08850 Gavà",639976697 ,nordicwalkinggava@gmail.com,,Salut - Bellesa - Centres esportius,41.299294,2.002121,"(41.299294, 2.002121)",http://portals.ajuntament.gava.cat/scdirectorimunicipal/app.html?id=5500,http://continguts.intra.gavaciutat.net/documents/76203/2268237/serveis.png
H2 Fitness Club,"carrer montflorit, 5, 08850 Gavà",936388147 ,,http://www.H2fitnessclub.com,Serveis,41.299294,2.002121,"(41.299294, 2.002121)",http://portals.ajuntament.gava.cat/scdirectorimunicipal/app.html?id=4906,http://continguts.intra.gavaciutat.net/documents/76203/2268237/comerc.png
Boquerón de Plata,"carrer montflorit, 57, 08850 Gavà", 647208474,,,Bar,41.30185,2.000978,"(41.30185, 2.000978)",http://portals.ajuntament.gava.cat/scdirectorimunicipal/app.html?id=5095,http://continguts.intra.gavaciutat.net/documents/76203/2268237/restauracio.png
Autoescola Musa,"carrer montflorit, 64, 08850 Gavà",936380544 663829438,,,Serveis,41.302113,2.000922,"(41.302113, 2.000922)",http://portals.ajuntament.gava.cat/scdirectorimunicipal/app.html?id=4924,http://continguts.intra.gavaciutat.net/documents/76203/2268237/comerc.png
Aroma Laboratori,"carrer montflorit, 64, 08850 Gavà", 671824243,,,Salut i cosmètica  (quotidià no alimentari),41.302113,2.000922,"(41.302113, 2.000922)",http://portals.ajuntament.gava.cat/scdirectorimunicipal/app.html?id=521,http://continguts.intra.gavaciutat.net/documents/76203/2268237/comerc.png
"Skitper, SCP","carrer montflorit, 64, 08850 Gavà",932503868 ,juan_mela16@hotmail.com,,Bar,41.302113,2.000922,"(41.302113, 2.000922)",http://portals.ajuntament.gava.cat/scdirectorimunicipal/app.html?id=861,http://continguts.intra.gavaciutat.net/documents/76203/2268237/restauracio.png
"Autoescuela D. Parejo, SL","carrer montflorit, 74, 08850 Gavà",936622263 ,,,Serveis,41.302876,2.000604,"(41.302876, 2.000604)",http://portals.ajuntament.gava.cat/scdirectorimunicipal/app.html?id=4919,http://continguts.intra.gavaciutat.net/documents/76203/2268237/comerc.png
Restaurante Bar Can Rodenas,"carrer montflorit, 76, 08850 Gavà",936620348 ,,,Bar - Restaurant,41.30293,2.000549,"(41.30293, 2.000549)",http://portals.ajuntament.gava.cat/scdirectorimunicipal/app.html?id=4189,http://continguts.intra.gavaciutat.net/documents/76203/2268237/restauracio.png
"Gabinete Asesor Eurogestió, S.L","carrer montflorit, 77, 08850 Gavà",936624717 645892389,,,Serveis,41.30407,2.001298,"(41.30407, 2.001298)",http://portals.ajuntament.gava.cat/scdirectorimunicipal/app.html?id=3939,http://continguts.intra.gavaciutat.net/documents/76203/2268237/comerc.png
Petit Estil,"carrer montflorit, 77, 08850 Gavà",936382551 692645265,petitestil@hotmail.com,http://www.petitestil.com,Equipament de la persona,41.30407,2.001298,"(41.30407, 2.001298)",http://portals.ajuntament.gava.cat/scdirectorimunicipal/app.html?id=4302,http://continguts.intra.gavaciutat.net/documents/76203/2268237/comerc.png
Ferreteria C&M,"carrer montflorit, 80, 08850 Gavà",936623504 625564316,ferreteriacm@hotmail.com,,Lleure i cultura,41.30306,2.000449,"(41.30306, 2.000449)",http://portals.ajuntament.gava.cat/scdirectorimunicipal/app.html?id=3904,http://continguts.intra.gavaciutat.net/documents/76203/2268237/comerc.png
Tratamientos de aguas - Gavà Sistemas,"carrer montflorit, 84, 08850 Gavà",93611809 ,info@gavasistemas.com,http://www.gavasistemas.com,Equipament de la llar,41.303333,2.000224,"(41.303333, 2.000224)",http://portals.ajuntament.gava.cat/scdirectorimunicipal/app.html?id=5151,http://continguts.intra.gavaciutat.net/documents/76203/2268237/comerc.png
Gavà Sistemas,"carrer montflorit, 84, 08850 Gavà",936111809 609218664,info@gavasistemas.com,http://www.gavasistemas.com,Equipament de la llar,41.303333,2.000224,"(41.303333, 2.000224)",http://portals.ajuntament.gava.cat/scdirectorimunicipal/app.html?id=4922,http://continguts.intra.gavaciutat.net/documents/76203/2268237/comerc.png
Fress Fruit,"carrer montflorit, 86, 08850 Gavà",935130491 657853206,,,Alimentació (quotidià alimentari),41.303406,2.000272,"(41.303406, 2.000272)",http://portals.ajuntament.gava.cat/scdirectorimunicipal/app.html?id=4907,http://continguts.intra.gavaciutat.net/documents/76203/2268237/comerc.png
Modas Plaza Nueva Línea,"carrer montflorit, 90, 08850 Gavà",936624045 690156559,i.plaza.garcia@gmail.com,,Equipament de la persona,41.30353,2.000208,"(41.30353, 2.000208)",http://portals.ajuntament.gava.cat/scdirectorimunicipal/app.html?id=4049,http://continguts.intra.gavaciutat.net/documents/76203/2268237/comerc.png
Croma Audiovisuales,"carrer montflorit, 93, 08850 Gavà",936626862 629383651,fotocroma@fotocroma.com,http://www.fotocroma.com,Lleure i cultura,41.305004,1.999408,"(41.305004, 1.999408)",http://portals.ajuntament.gava.cat/scdirectorimunicipal/app.html?id=3850,http://continguts.intra.gavaciutat.net/documents/76203/2268237/comerc.png
Bar La Terraza,"carrer montflorit, 96, 08850 Gavà",936336580 659098558,,,Bar,41.304844,1.999574,"(41.304844, 1.999574)",http://portals.ajuntament.gava.cat/scdirectorimunicipal/app.html?id=3755,http://continguts.intra.gavaciutat.net/documents/76203/2268237/restauracio.png
Escola de Ball El Muro de Jéssica Rodríguez,"carrer montflorit, 98, 08850 Gavà", 636677508,,,Serveis,41.30491,1.999545,"(41.30491, 1.999545)",http://portals.ajuntament.gava.cat/scdirectorimunicipal/app.html?id=1381,http://continguts.intra.gavaciutat.net/documents/76203/2268237/comerc.png
Lavaxpres - La Bugaderia del barri,"carrer montflorit, 98, 08850 Gavà",933183018 ,info@lavaxpres.com,http://www.lavaxpress.com,Serveis,41.30491,1.999545,"(41.30491, 1.999545)",http://portals.ajuntament.gava.cat/scdirectorimunicipal/app.html?id=1901,http://continguts.intra.gavaciutat.net/documents/76203/2268237/comerc.png
Administració de Loteries núm. 5,"carrer montflorit, 98, 08850 Gavà",936383591 639737707,montflorit98@yahoo.es,,Serveis,41.30491,1.999545,"(41.30491, 1.999545)",http://portals.ajuntament.gava.cat/scdirectorimunicipal/app.html?id=3708,http://continguts.intra.gavaciutat.net/documents/76203/2268237/comerc.png
Locutorio Latino Internet,"carrer montflorit, 98, 08850 Gavà",936389802 600081303,,,Serveis,41.30491,1.999545,"(41.30491, 1.999545)",http://portals.ajuntament.gava.cat/scdirectorimunicipal/app.html?id=4019,http://continguts.intra.gavaciutat.net/documents/76203/2268237/comerc.png
Vadenens,"carrer montflorit, 98, 08850 Gavà", 639050380,,,Equipament de la persona,41.30491,1.999545,"(41.30491, 1.999545)",http://portals.ajuntament.gava.cat/scdirectorimunicipal/app.html?id=4353,http://continguts.intra.gavaciutat.net/documents/76203/2268237/comerc.png
Margarit Perruquer ,"carrer moreres, 15, 08850 Gavà",936624868 687236983,ramon7@wanadoo.es,,Serveis,41.303627,2.007796,"(41.303627, 2.007796)",http://portals.ajuntament.gava.cat/scdirectorimunicipal/app.html?id=4744,http://continguts.intra.gavaciutat.net/documents/76203/2268237/comerc.png
Perruqueria Margarit,"carrer moreres, 15, 08850 Gavà",936624868 ,ramon7@wanadoo.es,,Serveis,41.303627,2.007796,"(41.303627, 2.007796)",http://portals.ajuntament.gava.cat/scdirectorimunicipal/app.html?id=4119,http://continguts.intra.gavaciutat.net/documents/76203/2268237/comerc.png
Héctor Gorgas Mateo,"carrer màrtirs del setge de 1714, 11-13, 08850 Gavà", ,,,Lleure i cultura,41.305466,2.006284,"(41.305466, 2.006284)",http://portals.ajuntament.gava.cat/scdirectorimunicipal/app.html?id=5366,http://continguts.intra.gavaciutat.net/documents/76203/2268237/comerc.png
Star Books,"carrer màrtirs del setge de 1714, 11-13, 08850 Gavà",936384981 ,,,Lleure i cultura,41.305466,2.006284,"(41.305466, 2.006284)",http://portals.ajuntament.gava.cat/scdirectorimunicipal/app.html?id=3960,http://continguts.intra.gavaciutat.net/documents/76203/2268237/comerc.png
Dewa,"carrer màrtirs del setge de 1714, 6, 08850 Gavà",936628402 ,,,Equipament de la persona,41.305466,2.006284,"(41.305466, 2.006284)",http://portals.ajuntament.gava.cat/scdirectorimunicipal/app.html?id=3853,http://continguts.intra.gavaciutat.net/documents/76203/2268237/comerc.png
Ysoma Gavà,"carrer màrtirs del setge de 1714, 6, 08850 Gavà", ,,,Equipament de la persona,41.305466,2.006284,"(41.305466, 2.006284)",http://portals.ajuntament.gava.cat/scdirectorimunicipal/app.html?id=5390,http://continguts.intra.gavaciutat.net/documents/76203/2268237/comerc.png
Amores Modas,"carrer màrtirs del setge de 1714, 6, 08850 Gavà",935153962 ,amore.moda.2015@gmail.com,,Equipament de la persona,41.305466,2.006284,"(41.305466, 2.006284)",http://portals.ajuntament.gava.cat/scdirectorimunicipal/app.html?id=3525,http://continguts.intra.gavaciutat.net/documents/76203/2268237/comerc.png
Tritelcom-Telecomunicacions,"carrer oficis, 5, 08850 Gavà", ,,,Tecnologia - Telecomunicacions,41.301064,2.014406,"(41.301064, 2.014406)",http://portals.ajuntament.gava.cat/scdirectorimunicipal/app.html?id=1046,http://continguts.intra.gavaciutat.net/documents/76203/2268237/serveis.png
Génesis,"carrer pau claris, 1, 08850 Gavà",936625430 66154976,,,Serveis,41.30539,1.99832,"(41.30539, 1.99832)",http://portals.ajuntament.gava.cat/scdirectorimunicipal/app.html?id=3947,http://continguts.intra.gavaciutat.net/documents/76203/2268237/comerc.png
Esver Modes,"carrer pau claris, 50, 08850 Gavà",936622192 627961303,,,Equipament de la persona,41.30688,1.997706,"(41.30688, 1.997706)",http://portals.ajuntament.gava.cat/scdirectorimunicipal/app.html?id=3885,http://continguts.intra.gavaciutat.net/documents/76203/2268237/comerc.png
"Auto Talleres Escudero, SL","carrer pau claris, 73, 08850 Gavà",936625300 647416509,taller@talleresescudero.com,,Serveis,41.307785,1.997172,"(41.307785, 1.997172)",http://portals.ajuntament.gava.cat/scdirectorimunicipal/app.html?id=3734,http://continguts.intra.gavaciutat.net/documents/76203/2268237/comerc.png
"Alucap, SL","carrer pau vergós, 60, 08850 Gavà",936623091 ,,,Equipament de la llar,41.302242,1.997248,"(41.302242, 1.997248)",http://portals.ajuntament.gava.cat/scdirectorimunicipal/app.html?id=5132,http://continguts.intra.gavaciutat.net/documents/76203/2268237/comerc.png
Bar El Fanal,"carrer pep ventura, 10, 08850 Gavà",936627836 ,,,Bar,41.311394,1.994856,"(41.311394, 1.994856)",http://portals.ajuntament.gava.cat/scdirectorimunicipal/app.html?id=3749,http://continguts.intra.gavaciutat.net/documents/76203/2268237/restauracio.png
Bar Merlín,"carrer pep ventura, 9, 08850 Gavà", 600767386,,,Bar,41.31135,1.994776,"(41.31135, 1.994776)",http://portals.ajuntament.gava.cat/scdirectorimunicipal/app.html?id=4776,http://continguts.intra.gavaciutat.net/documents/76203/2268237/restauracio.png
Bar Merlín,"carrer pep ventura, 9, 08850 Gavà", 600767386,,,Bar,41.31135,1.994776,"(41.31135, 1.994776)",http://portals.ajuntament.gava.cat/scdirectorimunicipal/app.html?id=1931,http://continguts.intra.gavaciutat.net/documents/76203/2268237/restauracio.png
Condis,"carrer pere el gran, 4, 08850 Gavà",936623443 ,c0612@condis.es,,Alimentació (quotidià alimentari),41.31082,1.99536,"(41.31082, 1.99536)",http://portals.ajuntament.gava.cat/scdirectorimunicipal/app.html?id=4271,http://continguts.intra.gavaciutat.net/documents/76203/2268237/comerc.png
Restaurant Quesada,"carrer premià, s/n, 08850 Gavà",936331003 ,administracion@quesadagavamar.com,,Bar - Restaurant,41.2695,2.032934,"(41.2695, 2.032934)",http://portals.ajuntament.gava.cat/scdirectorimunicipal/app.html?id=4187,http://continguts.intra.gavaciutat.net/documents/76203/2268237/restauracio.png
Carwash - Túnel de lavado,"carrer progrés, 55, 08850 Gavà",936383026 ,info@carwashspain.com,http://www.carwashspain.com,Serveis,41.295933,2.00575,"(41.295933, 2.00575)",http://portals.ajuntament.gava.cat/scdirectorimunicipal/app.html?id=5143,http://continguts.intra.gavaciutat.net/documents/76203/2268237/comerc.png
10XDIEZ,"carrer progrés, 78-80, 08850 Gavà",936381920 ,info@diezxdiez.es,http://www.diezxdiez.es,Equipament de la llar,41.295933,2.00575,"(41.295933, 2.00575)",http://portals.ajuntament.gava.cat/scdirectorimunicipal/app.html?id=4276,http://continguts.intra.gavaciutat.net/documents/76203/2268237/comerc.png
Eulogia Molero,"carrer rectoria, 1, 08850 Gavà",936623901 ,,,Serveis,41.303974,2.003487,"(41.303974, 2.003487)",http://portals.ajuntament.gava.cat/scdirectorimunicipal/app.html?id=4977,http://continguts.intra.gavaciutat.net/documents/76203/2268237/comerc.png
Electric- Cuina,"carrer rectoria, 1, 08850 Gavà",936384119 635449615,,,Equipament de la llar,41.303974,2.003487,"(41.303974, 2.003487)",http://portals.ajuntament.gava.cat/scdirectorimunicipal/app.html?id=4978,http://continguts.intra.gavaciutat.net/documents/76203/2268237/comerc.png
El Petirrojo,"carrer rectoria, 20, 08850 Gavà", 653993329,,,Equipament de la persona,41.304306,2.003595,"(41.304306, 2.003595)",http://portals.ajuntament.gava.cat/scdirectorimunicipal/app.html?id=5585,http://continguts.intra.gavaciutat.net/documents/76203/2268237/comerc.png
"Forn de la Riera, SL","carrer riera de les parets, 27, 08850 Gavà",936626965 ,,,Alimentació (quotidià alimentari),41.30119,2.003927,"(41.30119, 2.003927)",http://portals.ajuntament.gava.cat/scdirectorimunicipal/app.html?id=5077,http://continguts.intra.gavaciutat.net/documents/76203/2268237/comerc.png
Granja Churrería García,"carrer riera de les parets, 27, 08850 Gavà",936620204 678054647,josegarciagava@hotmail.com,,Bar,41.30119,2.003927,"(41.30119, 2.003927)",http://portals.ajuntament.gava.cat/scdirectorimunicipal/app.html?id=5076,http://continguts.intra.gavaciutat.net/documents/76203/2268237/restauracio.png
Fruiteria de la Riera,"carrer riera de sant llorenç, 153, 08850 Gavà", 609778179,,,Alimentació (quotidià alimentari),41.311695,1.998369,"(41.311695, 1.998369)",http://portals.ajuntament.gava.cat/scdirectorimunicipal/app.html?id=4264,http://continguts.intra.gavaciutat.net/documents/76203/2268237/comerc.png
Peluqueria Family,"carrer riera de sant llorenç, 169, 08850 Gavà", 672029962,,,Serveis,41.31182,1.997353,"(41.31182, 1.997353)",http://portals.ajuntament.gava.cat/scdirectorimunicipal/app.html?id=5078,http://continguts.intra.gavaciutat.net/documents/76203/2268237/comerc.png
Restaurant Bar La Estrella,"carrer riera de sant llorenç, 71, 08850 Gavà",936333375 ,,,Bar,41.311443,2.001808,"(41.311443, 2.001808)",http://portals.ajuntament.gava.cat/scdirectorimunicipal/app.html?id=4156,http://continguts.intra.gavaciutat.net/documents/76203/2268237/restauracio.png
Junpac,"carrer riu anoia, 1, 08850 Gavà",936381217 616118337,,,Equipament de la llar,41.312996,1.98996,"(41.312996, 1.98996)",http://portals.ajuntament.gava.cat/scdirectorimunicipal/app.html?id=3994,http://continguts.intra.gavaciutat.net/documents/76203/2268237/comerc.png
Bar Los Cazadores,"carrer riu ebre, 4, 08850 Gavà", ,,,Bar,41.313694,1.989141,"(41.313694, 1.989141)",http://portals.ajuntament.gava.cat/scdirectorimunicipal/app.html?id=4734,http://continguts.intra.gavaciutat.net/documents/76203/2268237/restauracio.png
"Carpintería Antonio Marín, SL","carrer riu fluvià, 27, 08850 Gavà",936624350 ,,,Equipament de la llar,41.3127,1.988693,"(41.3127, 1.988693)",http://portals.ajuntament.gava.cat/scdirectorimunicipal/app.html?id=5080,http://continguts.intra.gavaciutat.net/documents/76203/2268237/comerc.png
"Carpintería Antonio Marín, SL","carrer riu fluvià, 27, 08850 Gavà",936624350 ,,,Equipament de la llar,41.3127,1.988693,"(41.3127, 1.988693)",http://portals.ajuntament.gava.cat/scdirectorimunicipal/app.html?id=1947,http://continguts.intra.gavaciutat.net/documents/76203/2268237/comerc.png
"Carpintería Ebanistería Jorbel, SL ","carrer riu ter, 23, 08850 Gavà",936627866 600563252,jorbelsl@hotmail.com,,Equipament de la llar,41.312412,1.989046,"(41.312412, 1.989046)",http://portals.ajuntament.gava.cat/scdirectorimunicipal/app.html?id=4787,http://continguts.intra.gavaciutat.net/documents/76203/2268237/comerc.png
"Carpintería Ebanistería Jorbel, SL ","carrer riu ter, 23, 08850 Gavà",936627866 600563252,jorbelsl@hotmail.com,,Equipament de la llar,41.312412,1.989046,"(41.312412, 1.989046)",http://portals.ajuntament.gava.cat/scdirectorimunicipal/app.html?id=1948,http://continguts.intra.gavaciutat.net/documents/76203/2268237/comerc.png
Portes Pinelo,"carrer roger de flor, 14, 08850 Gavà",936336704 667725692,,,Equipament de la llar,41.310097,1.997843,"(41.310097, 1.997843)",http://portals.ajuntament.gava.cat/scdirectorimunicipal/app.html?id=4137,http://continguts.intra.gavaciutat.net/documents/76203/2268237/comerc.png
Bar Casablanca,"carrer roger de flor, 2-4, 08850 Gavà", ,,,Bar,41.31016,1.99643,"(41.31016, 1.99643)",http://portals.ajuntament.gava.cat/scdirectorimunicipal/app.html?id=4190,http://continguts.intra.gavaciutat.net/documents/76203/2268237/restauracio.png
Peluqueria M2,"carrer roger de flor, 25, 08850 Gavà",931821470 ,,,Serveis,41.310093,1.996402,"(41.310093, 1.996402)",http://portals.ajuntament.gava.cat/scdirectorimunicipal/app.html?id=4794,http://continguts.intra.gavaciutat.net/documents/76203/2268237/comerc.png
"Carpodent, SL","carrer roger de flor, 25, 08850 Gavà",936384659 ,,,Lleure i cultura,41.310093,1.996402,"(41.310093, 1.996402)",http://portals.ajuntament.gava.cat/scdirectorimunicipal/app.html?id=4693,http://continguts.intra.gavaciutat.net/documents/76203/2268237/comerc.png
Farmàcia Purificació Truco Catalán,"carrer roger de flor, 36, 08850 Gavà",936621799 ,,,Salut i cosmètica  (quotidià no alimentari),41.310196,1.996177,"(41.310196, 1.996177)",http://portals.ajuntament.gava.cat/scdirectorimunicipal/app.html?id=4981,http://continguts.intra.gavaciutat.net/documents/76203/2268237/comerc.png
Eva Sabuquillo,"carrer roger de flor, 38, 08850 Gavà",936381050 ,,,Bar,41.310196,1.996177,"(41.310196, 1.996177)",http://portals.ajuntament.gava.cat/scdirectorimunicipal/app.html?id=4971,http://continguts.intra.gavaciutat.net/documents/76203/2268237/restauracio.png
"Talleres Tecnomóvil, SCP","carrer salamanca, 28, 08850 Gavà",936383737 ,,,Serveis,41.302162,2.008387,"(41.302162, 2.008387)",http://portals.ajuntament.gava.cat/scdirectorimunicipal/app.html?id=4229,http://continguts.intra.gavaciutat.net/documents/76203/2268237/comerc.png
El Sigle,"carrer salvador lluch, 16, 08850 Gavà",936620239 ,elsigle1886@gmail.com,,Alimentació (quotidià alimentari),41.30581,2.004402,"(41.30581, 2.004402)",http://portals.ajuntament.gava.cat/scdirectorimunicipal/app.html?id=3870,http://continguts.intra.gavaciutat.net/documents/76203/2268237/comerc.png
Calzados Larruy,"carrer salvador lluch, 19, 08850 Gavà",936620292 ,,,Equipament de la persona,41.30575,2.004469,"(41.30575, 2.004469)",http://portals.ajuntament.gava.cat/scdirectorimunicipal/app.html?id=3798,http://continguts.intra.gavaciutat.net/documents/76203/2268237/comerc.png
Casa Clara,"carrer salvador lluch, 2, 08850 Gavà",936620285 ,,,Alimentació (quotidià alimentari),41.30584,2.004526,"(41.30584, 2.004526)",http://portals.ajuntament.gava.cat/scdirectorimunicipal/app.html?id=3814,http://continguts.intra.gavaciutat.net/documents/76203/2268237/comerc.png
Parés ,"carrer salvador lluch, 21, 08850 Gavà",936620286 615582511,paresmoda@gmail.com,,Equipament de la persona,41.306072,2.004669,"(41.306072, 2.004669)",http://portals.ajuntament.gava.cat/scdirectorimunicipal/app.html?id=1501,http://continguts.intra.gavaciutat.net/documents/76203/2268237/comerc.png
La Tapería de Gavà,"carrer salvador lluch, 30, 08850 Gavà",936389292 657814951,lataperiadegava@gmail.com,,Bar - Restaurant,41.30629,2.004525,"(41.30629, 2.004525)",http://portals.ajuntament.gava.cat/scdirectorimunicipal/app.html?id=5227,http://continguts.intra.gavaciutat.net/documents/76203/2268237/restauracio.png
Brugués,"carrer salvador lluch, 8, 08850 Gavà",936620283 ,,,Equipament de la persona,41.305935,2.004761,"(41.305935, 2.004761)",http://portals.ajuntament.gava.cat/scdirectorimunicipal/app.html?id=3782,http://continguts.intra.gavaciutat.net/documents/76203/2268237/comerc.png
Patrícia Morillas Centol,"carrer salvador lluch, 8, 08850 Gavà", ,,,Equipament de la persona,41.305935,2.004761,"(41.305935, 2.004761)",http://portals.ajuntament.gava.cat/scdirectorimunicipal/app.html?id=5359,http://continguts.intra.gavaciutat.net/documents/76203/2268237/comerc.png
Café Rodamon ,"carrer sant isidre, 20, 08850 Gavà",936622237 ,,,Bar,41.30561,2.003855,"(41.30561, 2.003855)",http://portals.ajuntament.gava.cat/scdirectorimunicipal/app.html?id=1939,http://continguts.intra.gavaciutat.net/documents/76203/2268237/restauracio.png
Tus Manos Hablan-Espai de Bellesa,"carrer sant isidre, 4, 08850 Gavà",936384006 ,tusmanoshablan@gmail.com,http://www.tusmanoshablan.es,Serveis,41.30561,2.003855,"(41.30561, 2.003855)",http://portals.ajuntament.gava.cat/scdirectorimunicipal/app.html?id=4246,http://continguts.intra.gavaciutat.net/documents/76203/2268237/comerc.png
El Globo,"carrer sant isidre, 4, 08850 Gavà",936629589 658865819,,,Serveis,41.30561,2.003855,"(41.30561, 2.003855)",http://portals.ajuntament.gava.cat/scdirectorimunicipal/app.html?id=3863,http://continguts.intra.gavaciutat.net/documents/76203/2268237/comerc.png
Expendeduria núm. 5,"carrer sant isidre, 4, 08850 Gavà",936620145 649441956,,,Lleure i cultura,41.30561,2.003855,"(41.30561, 2.003855)",http://portals.ajuntament.gava.cat/scdirectorimunicipal/app.html?id=3891,http://continguts.intra.gavaciutat.net/documents/76203/2268237/comerc.png
Al Teu Styl,"carrer sant isidre, 60, 08850 Gavà",936383895 ,,,Serveis,41.307037,2.003323,"(41.307037, 2.003323)",http://portals.ajuntament.gava.cat/scdirectorimunicipal/app.html?id=4743,http://continguts.intra.gavaciutat.net/documents/76203/2268237/comerc.png
"Neteges Dacar, SL","carrer sant isidre, 75, 08850 Gavà",936336303 619990201,,,Comerç Mix,41.307915,2.002844,"(41.307915, 2.002844)",http://portals.ajuntament.gava.cat/scdirectorimunicipal/app.html?id=4057,http://continguts.intra.gavaciutat.net/documents/76203/2268237/comerc.png
Catalana Occidente (seguros),"carrer sant isidre, 75, 08850 Gavà",936334795 600921654,gonzalez.arias@agentes.catalanaoccidente.com,,Serveis,41.307915,2.002844,"(41.307915, 2.002844)",http://portals.ajuntament.gava.cat/scdirectorimunicipal/app.html?id=4928,http://continguts.intra.gavaciutat.net/documents/76203/2268237/comerc.png
Enredos 2 Unisex,"carrer sant isidre, 75, 08850 Gavà",936388552 ,,,Serveis,41.307915,2.002844,"(41.307915, 2.002844)",http://portals.ajuntament.gava.cat/scdirectorimunicipal/app.html?id=4752,http://continguts.intra.gavaciutat.net/documents/76203/2268237/comerc.png
Mobles Gaudi,"carrer sant isidre, 81, 08850 Gavà",936380783 ,,,Equipament de la llar,41.308052,2.002795,"(41.308052, 2.002795)",http://portals.ajuntament.gava.cat/scdirectorimunicipal/app.html?id=4046,http://continguts.intra.gavaciutat.net/documents/76203/2268237/comerc.png
Perruqueria canina Maribel Font,"carrer sant joan, 1, 08850 Gavà",937499650 ,mpintos1969@yahoo.es,,Serveis,41.304295,2.002098,"(41.304295, 2.002098)",http://portals.ajuntament.gava.cat/scdirectorimunicipal/app.html?id=5200,http://continguts.intra.gavaciutat.net/documents/76203/2268237/comerc.png
Reparació de Calçat David,"carrer sant joan, 15, 08850 Gavà",936626565 615430695,sully_64@hotmail.es,,Serveis,41.30523,2.001936,"(41.30523, 2.001936)",http://portals.ajuntament.gava.cat/scdirectorimunicipal/app.html?id=4148,http://continguts.intra.gavaciutat.net/documents/76203/2268237/comerc.png
Gráficas Sánchez,"carrer sant joan, 21, 08850 Gavà", ,manuel@grsanchez.com,,Serveis,41.305477,2.001859,"(41.305477, 2.001859)",http://portals.ajuntament.gava.cat/scdirectorimunicipal/app.html?id=3955,http://continguts.intra.gavaciutat.net/documents/76203/2268237/comerc.png
La Chiquitita Vintage,"carrer sant joan, 3, 08850 Gavà",931295253 ,lachiquititavintage@yahoo.es,http://lachiquitita.com,Equipament de la persona,41.305187,2.001948,"(41.305187, 2.001948)",http://portals.ajuntament.gava.cat/scdirectorimunicipal/app.html?id=981,http://continguts.intra.gavaciutat.net/documents/76203/2268237/comerc.png
Petit Mercat,"carrer sant joan, 3, 08850 Gavà",622030606 ,,,Alimentació (quotidià alimentari),41.305187,2.001948,"(41.305187, 2.001948)",http://portals.ajuntament.gava.cat/scdirectorimunicipal/app.html?id=4300,http://continguts.intra.gavaciutat.net/documents/76203/2268237/comerc.png
El Petit Mercat,"carrer sant joan, 3, 08850 Gavà", ,rafigarcia1967@gmail.com,,Alimentació (quotidià alimentari),41.305187,2.001948,"(41.305187, 2.001948)",http://portals.ajuntament.gava.cat/scdirectorimunicipal/app.html?id=4940,http://continguts.intra.gavaciutat.net/documents/76203/2268237/comerc.png
"Rosell Roca, SL","carrer sant josep oriol, 10, 08850 Gavà",936620476 607225422,,,Equipament de la llar,41.304058,2.002345,"(41.304058, 2.002345)",http://portals.ajuntament.gava.cat/scdirectorimunicipal/app.html?id=4944,http://continguts.intra.gavaciutat.net/documents/76203/2268237/comerc.png
Laura Beauty Salon,"carrer sant josep oriol, 2, 08850 Gavà",648241813 ,ceballos418@gmail.com,,Serveis,41.303566,2.002491,"(41.303566, 2.002491)",http://portals.ajuntament.gava.cat/scdirectorimunicipal/app.html?id=4766,http://continguts.intra.gavaciutat.net/documents/76203/2268237/comerc.png
Restaurant Sabors,"carrer sant josep oriol, 2, 08850 Gavà",932506214 ,,,Restaurant,41.303566,2.002491,"(41.303566, 2.002491)",http://portals.ajuntament.gava.cat/scdirectorimunicipal/app.html?id=3101,http://continguts.intra.gavaciutat.net/documents/76203/2268237/restauracio.png
Charcutería Barrero,"carrer sant josep oriol, 2, 08850 Gavà",936389722 692215811,charcuteriabarrero@hotmail.com,,Alimentació (quotidià alimentari),41.303566,2.002491,"(41.303566, 2.002491)",http://portals.ajuntament.gava.cat/scdirectorimunicipal/app.html?id=4339,http://continguts.intra.gavaciutat.net/documents/76203/2268237/comerc.png
Charcutería Barrero,"carrer sant josep oriol, 2, 08850 Gavà",936389722 692215811,charcuteriabarrero@hotmail.com,,Alimentació (quotidià alimentari),41.303566,2.002491,"(41.303566, 2.002491)",http://portals.ajuntament.gava.cat/scdirectorimunicipal/app.html?id=1957,http://continguts.intra.gavaciutat.net/documents/76203/2268237/comerc.png
Deseos,"carrer sant josep oriol, 2, 08850 Gavà", 606614584,,,Alimentació (quotidià alimentari),41.303566,2.002491,"(41.303566, 2.002491)",http://portals.ajuntament.gava.cat/scdirectorimunicipal/app.html?id=4927,http://continguts.intra.gavaciutat.net/documents/76203/2268237/comerc.png
Club del Café Novell,"carrer sant josep oriol, 2, 08850 Gavà",936625191 678798909,,,Bar,41.303566,2.002491,"(41.303566, 2.002491)",http://portals.ajuntament.gava.cat/scdirectorimunicipal/app.html?id=3833,http://continguts.intra.gavaciutat.net/documents/76203/2268237/restauracio.png
Entrepans,"carrer sant josep oriol, 4, 08850 Gavà",936622424 656831800,,,Alimentació (quotidià alimentari),41.30361,2.002468,"(41.30361, 2.002468)",http://portals.ajuntament.gava.cat/scdirectorimunicipal/app.html?id=3880,http://continguts.intra.gavaciutat.net/documents/76203/2268237/comerc.png
Podoesport,"carrer sant josep oriol, 7, 08850 Gavà",936621162 ,info@podoesport.com ,http://www.podoesport.com,Serveis,41.30376,2.002399,"(41.30376, 2.002399)",http://portals.ajuntament.gava.cat/scdirectorimunicipal/app.html?id=4663,http://continguts.intra.gavaciutat.net/documents/76203/2268237/comerc.png
Amat Torne,"carrer sant josep oriol, 7, 08850 Gavà",936624111 ,,,Lleure i cultura,41.30376,2.002399,"(41.30376, 2.002399)",http://portals.ajuntament.gava.cat/scdirectorimunicipal/app.html?id=5135,http://continguts.intra.gavaciutat.net/documents/76203/2268237/comerc.png
Casa Textil,"carrer sant josep oriol, 8, 08850 Gavà",936336246 610525736,casa.textil@hotmail.com,,Equipament de la llar,41.304592,2.002104,"(41.304592, 2.002104)",http://portals.ajuntament.gava.cat/scdirectorimunicipal/app.html?id=4317,http://continguts.intra.gavaciutat.net/documents/76203/2268237/comerc.png
Gran Bazar ,"carrer sant lluís, 15, 08850 Gavà", 650019716,plzacatalunya@qq.com,,Comerç Mix,41.30765,1.998586,"(41.30765, 1.998586)",http://portals.ajuntament.gava.cat/scdirectorimunicipal/app.html?id=4948,http://continguts.intra.gavaciutat.net/documents/76203/2268237/comerc.png
La Font Groga,"carrer sant lluís, 25-27, 08850 Gavà",936384117 607704543,,,Lleure i cultura,41.30765,1.998586,"(41.30765, 1.998586)",http://portals.ajuntament.gava.cat/scdirectorimunicipal/app.html?id=4005,http://continguts.intra.gavaciutat.net/documents/76203/2268237/comerc.png
Decoración y Lencería Sánchez,"carrer sant lluís, 3-5-7, 08850 Gavà",936623211 ,,,Equipament de la llar,41.30765,1.998586,"(41.30765, 1.998586)",http://portals.ajuntament.gava.cat/scdirectorimunicipal/app.html?id=3851,http://continguts.intra.gavaciutat.net/documents/76203/2268237/comerc.png
Mabel Gestión Inmobiliaria,"carrer sant lluís, 36, 08850 Gavà",935199550 647084069,mabelgestio@gmail.com,http://www.mabelgestio.com,Immobiliari,41.30317,2.003213,"(41.30317, 2.003213)",http://portals.ajuntament.gava.cat/scdirectorimunicipal/app.html?id=4711,http://continguts.intra.gavaciutat.net/documents/76203/2268237/serveis.png
El Metropost,"carrer sant lluís, 36, 08850 Gavà",937687886 ,info@elmetropost.com,http://www.elmetropost.com,Serveis,41.30317,2.003213,"(41.30317, 2.003213)",http://portals.ajuntament.gava.cat/scdirectorimunicipal/app.html?id=5298,http://continguts.intra.gavaciutat.net/documents/76203/2268237/comerc.png
Auto Talleres 2000 - Taller,"carrer sant lluís, 42, 08850 Gavà",936628311 ,info@autotalleres2000.com,http://www.autotaller2000.com,Serveis,41.307243,1.997179,"(41.307243, 1.997179)",http://portals.ajuntament.gava.cat/scdirectorimunicipal/app.html?id=5144,http://continguts.intra.gavaciutat.net/documents/76203/2268237/comerc.png
"Autotaller 2000, SCP","carrer sant lluís, 42, 08850 Gavà",936628311 637537317,info@autotalleres2000.com,http://autotaller2000.com,Serveis,41.307243,1.997179,"(41.307243, 1.997179)",http://portals.ajuntament.gava.cat/scdirectorimunicipal/app.html?id=4750,http://continguts.intra.gavaciutat.net/documents/76203/2268237/comerc.png
"Taller Megaturbo, SL","carrer sant lluís, 42, 08850 Gavà",936620454 ,,,Serveis,41.307243,1.997179,"(41.307243, 1.997179)",http://portals.ajuntament.gava.cat/scdirectorimunicipal/app.html?id=4221,http://continguts.intra.gavaciutat.net/documents/76203/2268237/comerc.png
Estanc Gavà 2 ,"carrer sant lluís, 45, 08850 Gavà",936383638 ,,,Alimentació (quotidià alimentari),41.30317,2.003213,"(41.30317, 2.003213)",http://portals.ajuntament.gava.cat/scdirectorimunicipal/app.html?id=4954,http://continguts.intra.gavaciutat.net/documents/76203/2268237/comerc.png
Narciso Condeminas Frigole,"avinguda diagonal, 18, 08850 Gavà", ,,,Serveis,41.30509,1.997014,"(41.30509, 1.997014)",http://portals.ajuntament.gava.cat/scdirectorimunicipal/app.html?id=5462,http://continguts.intra.gavaciutat.net/documents/76203/2268237/comerc.png
Estanc Gavà 8,"avinguda diagonal, 18, 08850 Gavà",936383070 628037740,maifran1@hotmail.com,,Alimentació (quotidià alimentari),41.30509,1.997014,"(41.30509, 1.997014)",http://portals.ajuntament.gava.cat/scdirectorimunicipal/app.html?id=3890,http://continguts.intra.gavaciutat.net/documents/76203/2268237/comerc.png
Global Inmobiliaria Villamar,"avinguda diagonal, 21, 08850 Gavà",936333985 ,villamar.inmobiliaria@gmail.com,http://www.villamar.es,Serveis,41.304947,1.997106,"(41.304947, 1.997106)",http://portals.ajuntament.gava.cat/scdirectorimunicipal/app.html?id=4827,http://continguts.intra.gavaciutat.net/documents/76203/2268237/comerc.png
Caprabo,"avinguda eramprunyà, 4, 08850 Gavà",936382396 ,,,Alimentació (quotidià alimentari),41.309334,2.000036,"(41.309334, 2.000036)",http://portals.ajuntament.gava.cat/scdirectorimunicipal/app.html?id=4699,http://continguts.intra.gavaciutat.net/documents/76203/2268237/comerc.png
SOL CAFÉ,"avinguda joan carles i, s/n, 08850 Gavà", ,,,Bar Musical,41.298878,2.00314,"(41.298878, 2.00314)",http://portals.ajuntament.gava.cat/scdirectorimunicipal/app.html?id=628,http://continguts.intra.gavaciutat.net/documents/76203/2268237/restauracio.png
Casa de Aragón ,"avinguda mas sellarès, 26, 08850 Gavà",936627403 ,info@casadearagon.es,http://www.casadearagon.es,Turisme - Cultura - Oci,41.305996,2.00929,"(41.305996, 2.00929)",http://portals.ajuntament.gava.cat/scdirectorimunicipal/app.html?id=5514,http://continguts.intra.gavaciutat.net/documents/76203/2268237/serveis.png
Bar Casa Aragón,"avinguda mas sellarès, 26, 08850 Gavà",936627403 ,,,Restaurant,41.305996,2.00929,"(41.305996, 2.00929)",http://portals.ajuntament.gava.cat/scdirectorimunicipal/app.html?id=1787,http://continguts.intra.gavaciutat.net/documents/76203/2268237/restauracio.png
Bar Casa Aragón,"avinguda mas sellarès, 26, 08850 Gavà",936627403 ,,,Restaurant,41.305996,2.00929,"(41.305996, 2.00929)",http://portals.ajuntament.gava.cat/scdirectorimunicipal/app.html?id=1930,http://continguts.intra.gavaciutat.net/documents/76203/2268237/restauracio.png
Basar Gaudí,"carrer antoni gaudí, 8, 08850 Gavà",936388362 ,,,Comerç Mix,41.307865,2.003866,"(41.307865, 2.003866)",http://portals.ajuntament.gava.cat/scdirectorimunicipal/app.html?id=4841,http://continguts.intra.gavaciutat.net/documents/76203/2268237/comerc.png
She & He Estilistas,"carrer antoni gaudí, 8, 08850 Gavà",936336449 658302514,yolymiyoly@hotmail.com,,Serveis,41.307865,2.003866,"(41.307865, 2.003866)",http://portals.ajuntament.gava.cat/scdirectorimunicipal/app.html?id=4842,http://continguts.intra.gavaciutat.net/documents/76203/2268237/comerc.png
Bar Restaurante El Rincón de la Tortilla,"carrer artur costa, 51, 08850 Gavà",936625750 ,,,Bar - Restaurant,41.30334,2.006121,"(41.30334, 2.006121)",http://portals.ajuntament.gava.cat/scdirectorimunicipal/app.html?id=3768,http://continguts.intra.gavaciutat.net/documents/76203/2268237/restauracio.png
Kauai Gava Mar,"carrer calafell, 25-27, 08850 Gavà",936451188 ,eventoskauai@gmail.com,http://kauaigava.com,Bar - Restaurant,41.26635,2.007065,"(41.26635, 2.007065)",http://portals.ajuntament.gava.cat/scdirectorimunicipal/app.html?id=1024,http://continguts.intra.gavaciutat.net/documents/76203/2268237/restauracio.png
Colchonería Gavafels,"carrer colomeres, 129, 08850 Gavà",936629256 658926155,gavafels@hotmail.com,http://www.colchoneriagavafels.com,Equipament de la llar,41.30712,1.999341,"(41.30712, 1.999341)",http://portals.ajuntament.gava.cat/scdirectorimunicipal/app.html?id=3835,http://continguts.intra.gavaciutat.net/documents/76203/2268237/comerc.png
BLAN B ,"carrer colomeres, 135, 08850 Gavà",632024278 ,WAHYIDINNE@GMAIL.COM,,Salut - Bellesa - Centres esportius,41.30739,1.99921,"(41.30739, 1.99921)",http://portals.ajuntament.gava.cat/scdirectorimunicipal/app.html?id=5496,http://continguts.intra.gavaciutat.net/documents/76203/2268237/serveis.png
Amal Sadek,"carrer colomeres, 135, 08850 Gavà", ,,,Serveis,41.30739,1.99921,"(41.30739, 1.99921)",http://portals.ajuntament.gava.cat/scdirectorimunicipal/app.html?id=5435,http://continguts.intra.gavaciutat.net/documents/76203/2268237/comerc.png
La Merceria,"carrer colomeres, 135, 08850 Gavà",936384809 ,,,Equipament de la persona,41.30739,1.99921,"(41.30739, 1.99921)",http://portals.ajuntament.gava.cat/scdirectorimunicipal/app.html?id=4006,http://continguts.intra.gavaciutat.net/documents/76203/2268237/comerc.png
Sajid Rafic,"carrer colomeres, 135, 08850 Gavà", ,,,Alimentació (quotidià alimentari),41.30739,1.99921,"(41.30739, 1.99921)",http://portals.ajuntament.gava.cat/scdirectorimunicipal/app.html?id=5378,http://continguts.intra.gavaciutat.net/documents/76203/2268237/comerc.png
Yolanda Ruiz Romero,"carrer colomeres, 54, 08850 Gavà", ,,,Equipament de la llar,41.304264,2.000734,"(41.304264, 2.000734)",http://portals.ajuntament.gava.cat/scdirectorimunicipal/app.html?id=5426,http://continguts.intra.gavaciutat.net/documents/76203/2268237/comerc.png
"Kings JDM, SCP","carrer f. pi i margall, 52, 08850 Gavà", ,,,Taller mecànic - Reparacions - Concessionari,41.30796,1.996434,"(41.30796, 1.996434)",http://portals.ajuntament.gava.cat/scdirectorimunicipal/app.html?id=5471,http://continguts.intra.gavaciutat.net/documents/76203/2268237/serveis.png
"Carpintería Metàlica J. García, SL","carrer f. pi i margall, 71, 08850 Gavà",936629241 ,j-garciabcn@hotmail.com,,Serveis,41.307697,1.997156,"(41.307697, 1.997156)",http://portals.ajuntament.gava.cat/scdirectorimunicipal/app.html?id=3811,http://continguts.intra.gavaciutat.net/documents/76203/2268237/comerc.png
"Carpintería Metàlica J. García, SL","carrer f. pi i margall, 71, 08850 Gavà",936629241 ,j-garciabcn@hotmail.com,,Serveis,41.307697,1.997156,"(41.307697, 1.997156)",http://portals.ajuntament.gava.cat/scdirectorimunicipal/app.html?id=1949,http://continguts.intra.gavaciutat.net/documents/76203/2268237/comerc.png
Forn de Pa Fina,"carrer f. pi i margall, 97, 08850 Gavà",936383676 ,,,Alimentació (quotidià alimentari),41.30774,1.995856,"(41.30774, 1.995856)",http://portals.ajuntament.gava.cat/scdirectorimunicipal/app.html?id=4731,http://continguts.intra.gavaciutat.net/documents/76203/2268237/comerc.png
Vikas Autoservei,"carrer f. pi i margall, 97, 08850 Gavà",680120479 ,,,Alimentació (quotidià alimentari),41.30774,1.995856,"(41.30774, 1.995856)",http://portals.ajuntament.gava.cat/scdirectorimunicipal/app.html?id=4723,http://continguts.intra.gavaciutat.net/documents/76203/2268237/comerc.png
Colmado Express,"carrer f. pi i margall, 97, 08850 Gavà", 637582562,,,Alimentació (quotidià alimentari),41.30774,1.995856,"(41.30774, 1.995856)",http://portals.ajuntament.gava.cat/scdirectorimunicipal/app.html?id=4784,http://continguts.intra.gavaciutat.net/documents/76203/2268237/comerc.png
Bar Restaurant Cassandra,"carrer guifré el pelós, 2, 08850 Gavà",936626930 627731962,restcassandra@gmail.com,,Bar - Restaurant,41.307056,1.995755,"(41.307056, 1.995755)",http://portals.ajuntament.gava.cat/scdirectorimunicipal/app.html?id=3767,http://continguts.intra.gavaciutat.net/documents/76203/2268237/restauracio.png
Only Nails,"carrer jaume i, 1, 08850 Gavà", 616699832,andrea_gava91@hotmail.com,,Salut - Bellesa - Centres esportius,41.31595,2.026624,"(41.31595, 2.026624)",http://portals.ajuntament.gava.cat/scdirectorimunicipal/app.html?id=623,http://continguts.intra.gavaciutat.net/documents/76203/2268237/serveis.png
Cafeteria Monjo's,"carrer jaume i, 1, 08850 Gavà",936334599 ,,,Bar,41.31595,2.026624,"(41.31595, 2.026624)",http://portals.ajuntament.gava.cat/scdirectorimunicipal/app.html?id=4703,http://continguts.intra.gavaciutat.net/documents/76203/2268237/restauracio.png
Restaurant Major Trentasis,"carrer major, 36, 08850 Gavà",936626652 ,restaurant@major36.com,http://www.major36.com,Restaurant,41.304836,2.005612,"(41.304836, 2.005612)",http://portals.ajuntament.gava.cat/scdirectorimunicipal/app.html?id=4182,http://continguts.intra.gavaciutat.net/documents/76203/2268237/restauracio.png
"Installscaler, SL","carrer manuel de falla, 11, 08850 Gavà", 607320023,,,Equipament de la llar,41.307,1.994583,"(41.307, 1.994583)",http://portals.ajuntament.gava.cat/scdirectorimunicipal/app.html?id=5099,http://continguts.intra.gavaciutat.net/documents/76203/2268237/comerc.png
Festella,"carrer manuel de falla, 7, 08850 Gavà", 669802021,lafestella@gmail.com,,Sense classificar,41.305637,1.9955,"(41.305637, 1.9955)",http://portals.ajuntament.gava.cat/scdirectorimunicipal/app.html?id=2181,http://continguts.intra.gavaciutat.net/documents/76203/2268237/serveis.png
El portal de la Lluna,"carrer manuel de falla, 7, 08850 Gavà",936622560 619478141,,,Serveis,41.305637,1.9955,"(41.305637, 1.9955)",http://portals.ajuntament.gava.cat/scdirectorimunicipal/app.html?id=4661,http://continguts.intra.gavaciutat.net/documents/76203/2268237/comerc.png
Centre Dental Balmes,"carrer manuel de falla, 7, 08850 Gavà",936388181 649912884,jbulness@yahoo.es,http://www.centredentalbulnes.com,Lleure i cultura,41.305637,1.9955,"(41.305637, 1.9955)",http://portals.ajuntament.gava.cat/scdirectorimunicipal/app.html?id=3828,http://continguts.intra.gavaciutat.net/documents/76203/2268237/comerc.png
l'Aula de Dansa,"carrer marc grau, 9, 08850 Gavà",936382449 ,l.aula@auladansa.com,http://www.auladedansa.com,Serveis,41.30718,2.004027,"(41.30718, 2.004027)",http://portals.ajuntament.gava.cat/scdirectorimunicipal/app.html?id=4307,http://continguts.intra.gavaciutat.net/documents/76203/2268237/comerc.png
Peluqueria Eva Caseiro,"carrer mare de déu de montserrat, 3, 08850 Gavà",936623153 600570306,,,Serveis,41.30337,2.002016,"(41.30337, 2.002016)",http://portals.ajuntament.gava.cat/scdirectorimunicipal/app.html?id=3886,http://continguts.intra.gavaciutat.net/documents/76203/2268237/comerc.png
El Pessic,"carrer mare de déu de montserrat, 3, 08850 Gavà",936384172 678087532,,,Bar,41.30337,2.002016,"(41.30337, 2.002016)",http://portals.ajuntament.gava.cat/scdirectorimunicipal/app.html?id=3867,http://continguts.intra.gavaciutat.net/documents/76203/2268237/restauracio.png
7-7,"carrer montflorit, 157, 08850 Gavà",936621266 ,,,Equipament de la persona,41.30766,1.998165,"(41.30766, 1.998165)",http://portals.ajuntament.gava.cat/scdirectorimunicipal/app.html?id=4721,http://continguts.intra.gavaciutat.net/documents/76203/2268237/comerc.png
Asociación de vecinos de Can Tintorer,"carrer rafael casanova, 5, 08850 Gavà",936626678 669702875,,,Turisme - Cultura - Oci,41.309425,1.999587,"(41.309425, 1.999587)",http://portals.ajuntament.gava.cat/scdirectorimunicipal/app.html?id=1026,http://continguts.intra.gavaciutat.net/documents/76203/2268237/serveis.png
Herbes i Coses,"carrer sant isidre, 3, 08850 Gavà",936621253 ,,,Salut i cosmètica  (quotidià no alimentari),41.30561,2.003855,"(41.30561, 2.003855)",http://portals.ajuntament.gava.cat/scdirectorimunicipal/app.html?id=3962,http://continguts.intra.gavaciutat.net/documents/76203/2268237/comerc.png
Amalgama,"carrer sant joan, 13, 08850 Gavà",936625254 625543467,amalgama97@hotmail.com,http://www.amalgamagava.com/,Equipament de la llar,41.305187,2.001948,"(41.305187, 2.001948)",http://portals.ajuntament.gava.cat/scdirectorimunicipal/app.html?id=3717,http://continguts.intra.gavaciutat.net/documents/76203/2268237/comerc.png
Ahigar Gestión ,"carrer sant josep oriol, 6, 08850 Gavà",936336633 658697049,,http://www.ahigargestio.com,Serveis,41.30371,2.002422,"(41.30371, 2.002422)",http://portals.ajuntament.gava.cat/scdirectorimunicipal/app.html?id=3711,http://continguts.intra.gavaciutat.net/documents/76203/2268237/comerc.png
Restaurante Pizzeria Di Napoli,"carrer sant josep oriol, 6, 08850 Gavà",936621406 ,,,Bar,41.30371,2.002422,"(41.30371, 2.002422)",http://portals.ajuntament.gava.cat/scdirectorimunicipal/app.html?id=4194,http://continguts.intra.gavaciutat.net/documents/76203/2268237/restauracio.png
Racing Motor Car,"carrer sant lluís, 30, 08850 Gavà",936388943 ,racingmotorcargava@hotmail.com,,Automoció i carburants,41.30763,1.998506,"(41.30763, 1.998506)",http://portals.ajuntament.gava.cat/scdirectorimunicipal/app.html?id=4795,http://continguts.intra.gavaciutat.net/documents/76203/2268237/comerc.png
C. Salvador ,"carrer sant pere, 43, 08850 Gavà", ,,,Salut i cosmètica  (quotidià no alimentari),41.30412,2.001999,"(41.30412, 2.001999)",http://portals.ajuntament.gava.cat/scdirectorimunicipal/app.html?id=5507,http://continguts.intra.gavaciutat.net/documents/76203/2268237/comerc.png
El Peixet d'en Jaume ,"carrer sant pere, 43, 08850 Gavà",936382083 667484421,,,Alimentació (quotidià alimentari),41.30412,2.001999,"(41.30412, 2.001999)",http://portals.ajuntament.gava.cat/scdirectorimunicipal/app.html?id=4965,http://continguts.intra.gavaciutat.net/documents/76203/2268237/comerc.png
"Roménez 2016 Alimentació de Mascotes, SCP","carrer sant pere, 84, 08850 Gavà", ,,,Serveis,41.303795,2.000504,"(41.303795, 2.000504)",http://portals.ajuntament.gava.cat/scdirectorimunicipal/app.html?id=5472,http://continguts.intra.gavaciutat.net/documents/76203/2268237/comerc.png
Vitaldent,"carrer sant pere, 88, 08850 Gavà", ,,,Salut - Bellesa - Centres esportius,41.303738,2.000525,"(41.303738, 2.000525)",http://portals.ajuntament.gava.cat/scdirectorimunicipal/app.html?id=5250,http://continguts.intra.gavaciutat.net/documents/76203/2268237/serveis.png
Prink,"carrer usatges de barcelona, 1, 08850 Gavà",931745041 ,gava@prink.es,http://www.prink.es,Serveis,41.3021,2.006536,"(41.3021, 2.006536)",http://portals.ajuntament.gava.cat/scdirectorimunicipal/app.html?id=5253,http://continguts.intra.gavaciutat.net/documents/76203/2268237/comerc.png
T-Viénes,"carrer àngel guimerà, 31, 08850 Gavà", 645962060,,,Bar,41.30185,2.001741,"(41.30185, 2.001741)",http://portals.ajuntament.gava.cat/scdirectorimunicipal/app.html?id=4834,http://continguts.intra.gavaciutat.net/documents/76203/2268237/restauracio.png
Kine Gavà,"carretera santa creu de calafell, 135, 08850 Gavà",936621497 656839548,,,Comerç Mix,41.300545,2.005571,"(41.300545, 2.005571)",http://portals.ajuntament.gava.cat/scdirectorimunicipal/app.html?id=3995,http://continguts.intra.gavaciutat.net/documents/76203/2268237/comerc.png
Farmàcia Herreros,"carretera santa creu de calafell, 135, 08850 Gavà",936623712 635510774,herreros.fernandez@telefonica.net,,Salut i cosmètica  (quotidià no alimentari),41.300545,2.005571,"(41.300545, 2.005571)",http://portals.ajuntament.gava.cat/scdirectorimunicipal/app.html?id=3897,http://continguts.intra.gavaciutat.net/documents/76203/2268237/comerc.png
"Instalaciones Pujalte, SL","passeig joan maragall, 23, 08850 Gavà",936626220 618052157,,,Equipament de la llar,41.302387,2.000875,"(41.302387, 2.000875)",http://portals.ajuntament.gava.cat/scdirectorimunicipal/app.html?id=3975,http://continguts.intra.gavaciutat.net/documents/76203/2268237/comerc.png
Zagal's,"plaça catalunya, 7, 08850 Gavà",936382316 ,,,Equipament de la persona,41.308224,2.001147,"(41.308224, 2.001147)",http://portals.ajuntament.gava.cat/scdirectorimunicipal/app.html?id=4259,http://continguts.intra.gavaciutat.net/documents/76203/2268237/comerc.png
Jardi Dolç,"plaça església, 1, 08850 Gavà", ,,,Alimentació (quotidià alimentari),41.280243,1.976825,"(41.280243, 1.976825)",http://portals.ajuntament.gava.cat/scdirectorimunicipal/app.html?id=5009,http://continguts.intra.gavaciutat.net/documents/76203/2268237/comerc.png
El Forn de la Rambla ,"rambla joaquim vayreda, 61, 08850 Gavà",936620275 ,,,Alimentació (quotidià alimentari),41.305653,2.007254,"(41.305653, 2.007254)",http://portals.ajuntament.gava.cat/scdirectorimunicipal/app.html?id=3862,http://continguts.intra.gavaciutat.net/documents/76203/2268237/comerc.png
Poliesportiu Safa,"rambla pompeu fabra, 130, 08850 Gavà",936620009 687521733,direccio@poliesportiusafa.com,http://www.poliesportiusafa.com,Serveis,41.30909,2.00353,"(41.30909, 2.00353)",http://portals.ajuntament.gava.cat/scdirectorimunicipal/app.html?id=4136,http://continguts.intra.gavaciutat.net/documents/76203/2268237/comerc.png
Ademan,"rambla pompeu fabra, 132, 08850 Gavà",902363551 ,,,Serveis,41.30917,2.003717,"(41.30917, 2.003717)",http://portals.ajuntament.gava.cat/scdirectorimunicipal/app.html?id=5067,http://continguts.intra.gavaciutat.net/documents/76203/2268237/comerc.png
Infobaix,"rambla pompeu fabra, 132, 08850 Gavà",902181519 ,infobaix@infobaix.com,http://www.infobaix.com,Serveis,41.30917,2.003717,"(41.30917, 2.003717)",http://portals.ajuntament.gava.cat/scdirectorimunicipal/app.html?id=5065,http://continguts.intra.gavaciutat.net/documents/76203/2268237/comerc.png
Babyfruit,"rambla pompeu fabra, 132, 08850 Gavà",936381132 605922730,,,Alimentació (quotidià alimentari),41.30917,2.003717,"(41.30917, 2.003717)",http://portals.ajuntament.gava.cat/scdirectorimunicipal/app.html?id=3738,http://continguts.intra.gavaciutat.net/documents/76203/2268237/comerc.png
Padel Indoor Gavà ,"avinguda bertran i güell, 21-23, 08850 Gavà", 673948365,info@padelindoorgava.cat ,,Salut - Bellesa - Centres esportius,41.298782,2.009611,"(41.298782, 2.009611)",http://portals.ajuntament.gava.cat/scdirectorimunicipal/app.html?id=5520,http://continguts.intra.gavaciutat.net/documents/76203/2268237/serveis.png
Lampis Automoció,"avinguda bertran i güell, 21-23, 08850 Gavà", ,,,Serveis,41.298782,2.009611,"(41.298782, 2.009611)",http://portals.ajuntament.gava.cat/scdirectorimunicipal/app.html?id=5232,http://continguts.intra.gavaciutat.net/documents/76203/2268237/comerc.png
"Auto-Gama, SA","avinguda bertran i güell, 23, 08850 Gavà",932603160 ,,,Automoció i carburants,41.298782,2.009611,"(41.298782, 2.009611)",http://portals.ajuntament.gava.cat/scdirectorimunicipal/app.html?id=5233,http://continguts.intra.gavaciutat.net/documents/76203/2268237/comerc.png
Bar Emilio,"avinguda bertran i güell, 30, 08850 Gavà",936628830 ,,,Bar,41.299713,2.008894,"(41.299713, 2.008894)",http://portals.ajuntament.gava.cat/scdirectorimunicipal/app.html?id=4350,http://continguts.intra.gavaciutat.net/documents/76203/2268237/restauracio.png
"Comercial Ros, SA (Renault Dacia)","avinguda bertran i güell, 36, 08850 Gavà",936522051 626083697,jordi.arbones@renaultros.com,,Automoció i carburants,41.29963,2.00871,"(41.29963, 2.00871)",http://portals.ajuntament.gava.cat/scdirectorimunicipal/app.html?id=5231,http://continguts.intra.gavaciutat.net/documents/76203/2268237/comerc.png
Rio Import (Volkswagen),"avinguda bertran i güell, 44, 08850 Gavà",936801777 936626163,vw@rioimport.es,,Serveis,41.29916,2.009107,"(41.29916, 2.009107)",http://portals.ajuntament.gava.cat/scdirectorimunicipal/app.html?id=5237,http://continguts.intra.gavaciutat.net/documents/76203/2268237/comerc.png
Rio Import (Audi),"avinguda bertran i güell, 44, 08850 Gavà",936801777 ,audi@rioimport.es,,Automoció i carburants,41.29916,2.009107,"(41.29916, 2.009107)",http://portals.ajuntament.gava.cat/scdirectorimunicipal/app.html?id=5236,http://continguts.intra.gavaciutat.net/documents/76203/2268237/comerc.png
Fusteria Isidre,"avinguda bertran i güell, 5, 08850 Gavà",936629624 ,,,Equipament de la llar,41.301804,2.007265,"(41.301804, 2.007265)",http://portals.ajuntament.gava.cat/scdirectorimunicipal/app.html?id=3938,http://continguts.intra.gavaciutat.net/documents/76203/2268237/comerc.png
J.F Star Bravo Automoviles (Toyota),"avinguda bertran i güell, 50, 08850 Gavà",936525990 936389303,josemaria.merino@starbaix.com,,Automoció i carburants,41.298225,2.009841,"(41.298225, 2.009841)",http://portals.ajuntament.gava.cat/scdirectorimunicipal/app.html?id=5234,http://continguts.intra.gavaciutat.net/documents/76203/2268237/comerc.png
Gimnàs Arqus,"avinguda bertran i güell, 54, 08850 Gavà",936384756 607530898,arqusport@terra.es,http://www.arqusport.com,Serveis,41.297802,2.010356,"(41.297802, 2.010356)",http://portals.ajuntament.gava.cat/scdirectorimunicipal/app.html?id=5148,http://continguts.intra.gavaciutat.net/documents/76203/2268237/comerc.png
Sara Navarro,"avinguda bòbiles, 20, 08850 Gavà",936622519 ,saranavarro1987@gmail.com,,Serveis,41.30406,1.993122,"(41.30406, 1.993122)",http://portals.ajuntament.gava.cat/scdirectorimunicipal/app.html?id=3777,http://continguts.intra.gavaciutat.net/documents/76203/2268237/comerc.png
Clínica Veterinària Les Bòbiles,"avinguda bòbiles, 30, 08850 Gavà",936335630 650394190,opvalls@hotmail.com,,Serveis,41.30406,1.993122,"(41.30406, 1.993122)",http://portals.ajuntament.gava.cat/scdirectorimunicipal/app.html?id=4832,http://continguts.intra.gavaciutat.net/documents/76203/2268237/comerc.png
A-duo,"avinguda bòbiles, 30, 08850 Gavà",936382720 696623940,linosandri@hotmail.com,,Salut i cosmètica  (quotidià no alimentari),41.30406,1.993122,"(41.30406, 1.993122)",http://portals.ajuntament.gava.cat/scdirectorimunicipal/app.html?id=4830,http://continguts.intra.gavaciutat.net/documents/76203/2268237/comerc.png
"Servi Cris, SL","avinguda diagonal, 10, 08850 Gavà",936625016 656958068,SERVICRIS@hotmail.com,,Serveis,41.304775,1.997686,"(41.304775, 1.997686)",http://portals.ajuntament.gava.cat/scdirectorimunicipal/app.html?id=4205,http://continguts.intra.gavaciutat.net/documents/76203/2268237/comerc.png
"Bcn-Grenn, SL","avinguda diagonal, 10, 08850 Gavà",936625016 610466375,jardineria@bcngreen.com,http://www.bcngreen.com,Equipament de la llar,41.304775,1.997686,"(41.304775, 1.997686)",http://portals.ajuntament.gava.cat/scdirectorimunicipal/app.html?id=3774,http://continguts.intra.gavaciutat.net/documents/76203/2268237/comerc.png
Naturestètic,"avinguda diagonal, 10, 08850 Gavà",936389241 693931111,naturestetic_gava@yahoo.es,,Salut i cosmètica  (quotidià no alimentari),41.304775,1.997686,"(41.304775, 1.997686)",http://portals.ajuntament.gava.cat/scdirectorimunicipal/app.html?id=4828,http://continguts.intra.gavaciutat.net/documents/76203/2268237/comerc.png
Foto Pir Video - Kodak Express,"avinguda diagonal, 16, 08850 Gavà",936382397 653934121,laboratori@fotopirvideo.com,http://www.fotopirvideo.com,Lleure i cultura,41.30509,1.997014,"(41.30509, 1.997014)",http://portals.ajuntament.gava.cat/scdirectorimunicipal/app.html?id=4279,http://continguts.intra.gavaciutat.net/documents/76203/2268237/comerc.png
Tienda de chuches Gavà ,"avinguda diagonal, 16, 08850 Gavà",658092910 ,noemmunoz@hotmail.com,,Alimentació (quotidià alimentari),41.30509,1.997014,"(41.30509, 1.997014)",http://portals.ajuntament.gava.cat/scdirectorimunicipal/app.html?id=5498,http://continguts.intra.gavaciutat.net/documents/76203/2268237/comerc.png
Vanesa Costa Rodríguez,"avinguda diagonal, 22, 08850 Gavà", ,,,Serveis,41.30509,1.997014,"(41.30509, 1.997014)",http://portals.ajuntament.gava.cat/scdirectorimunicipal/app.html?id=5370,http://continguts.intra.gavaciutat.net/documents/76203/2268237/comerc.png
"Antlantis Reforma, SL","avinguda diagonal, 22, 08850 Gavà",936622111 649950681,reforma@antlantis.net,http://www.antlantis.net,Serveis,41.30509,1.997014,"(41.30509, 1.997014)",http://portals.ajuntament.gava.cat/scdirectorimunicipal/app.html?id=3719,http://continguts.intra.gavaciutat.net/documents/76203/2268237/comerc.png
Centro Médico Brugués Diagonal,"avinguda diagonal, 22, 08850 Gavà",936384437 ,cmbdiagonal@hotmail.com,,Lleure i cultura,41.30509,1.997014,"(41.30509, 1.997014)",http://portals.ajuntament.gava.cat/scdirectorimunicipal/app.html?id=4824,http://continguts.intra.gavaciutat.net/documents/76203/2268237/comerc.png
Áreas de Alimentación ,"avinguda diagonal, 4, 08850 Gavà",932626363 630912108,javier@areasdealimentacion.com,,Alimentació (quotidià alimentari),41.304115,1.998206,"(41.304115, 1.998206)",http://portals.ajuntament.gava.cat/scdirectorimunicipal/app.html?id=5120,http://continguts.intra.gavaciutat.net/documents/76203/2268237/comerc.png
Bar Plaza Balmes,"avinguda diagonal, 4, 08850 Gavà", 657651123,,,Bar,41.304115,1.998206,"(41.304115, 1.998206)",http://portals.ajuntament.gava.cat/scdirectorimunicipal/app.html?id=4817,http://continguts.intra.gavaciutat.net/documents/76203/2268237/restauracio.png
"Murillo Gestió Integral, SL","avinguda diagonal, 5, 08850 Gavà",936383919 ,murillogestio@murillogestio.es,http://www.murillogestio.es,Serveis jurídics - Gestories,41.304783,1.997671,"(41.304783, 1.997671)",http://portals.ajuntament.gava.cat/scdirectorimunicipal/app.html?id=2481,http://continguts.intra.gavaciutat.net/documents/76203/2268237/serveis.png
Cerveceria Las Tinajas,"avinguda diagonal, 5, 08850 Gavà",936383672 600042905,,,Bar,41.304783,1.997671,"(41.304783, 1.997671)",http://portals.ajuntament.gava.cat/scdirectorimunicipal/app.html?id=4157,http://continguts.intra.gavaciutat.net/documents/76203/2268237/restauracio.png
Decoración Belmar,"avinguda diagonal, 6, 08850 Gavà",936333328 616963192,diagonal@belmardecoracion.com,http://www.belmardecoracion.com,Equipament de la llar,41.30478,1.997678,"(41.30478, 1.997678)",http://portals.ajuntament.gava.cat/scdirectorimunicipal/app.html?id=3778,http://continguts.intra.gavaciutat.net/documents/76203/2268237/comerc.png
Supermercados Condis,"avinguda diagonal, 6, 08850 Gavà",936382333 680354366,,http://www.condis.es,Alimentació (quotidià alimentari),41.30478,1.997678,"(41.30478, 1.997678)",http://portals.ajuntament.gava.cat/scdirectorimunicipal/app.html?id=4216,http://continguts.intra.gavaciutat.net/documents/76203/2268237/comerc.png
El Racó de Diagonal,"avinguda diagonal, 8, 08850 Gavà",936627023 ,,,Alimentació (quotidià alimentari),41.304775,1.997686,"(41.304775, 1.997686)",http://portals.ajuntament.gava.cat/scdirectorimunicipal/app.html?id=3869,http://continguts.intra.gavaciutat.net/documents/76203/2268237/comerc.png
Áreas de Alimentación,"avinguda eramprunyà, 14-16, 08850 Gavà",936389040 ,,http://www.areasdealimentacion.com,Alimentació (quotidià alimentari),41.309486,1.997562,"(41.309486, 1.997562)",http://portals.ajuntament.gava.cat/scdirectorimunicipal/app.html?id=4678,http://continguts.intra.gavaciutat.net/documents/76203/2268237/comerc.png
"Unitrans, SCCL ","avinguda eramprunyà, 15, 08850 Gavà",936388158 663880120,unitrans@unitrans.es,http://www.unitrans.es/,Serveis,41.309486,1.997562,"(41.309486, 1.997562)",http://portals.ajuntament.gava.cat/scdirectorimunicipal/app.html?id=4769,http://continguts.intra.gavaciutat.net/documents/76203/2268237/comerc.png
"Comercial A' Fonsagrada 2000, SL ","avinguda eramprunyà, 15, 08850 Gavà",936389085 ,afonsagrada2000sl@hotmail.com,,Serveis,41.309486,1.997562,"(41.309486, 1.997562)",http://portals.ajuntament.gava.cat/scdirectorimunicipal/app.html?id=4717,http://continguts.intra.gavaciutat.net/documents/76203/2268237/comerc.png
Gavavins,"avinguda eramprunyà, 22, 08850 Gavà", ,joseluis@gavavins.es,http://www.gavavins.es,Alimentació (quotidià alimentari),41.309486,1.997562,"(41.309486, 1.997562)",http://portals.ajuntament.gava.cat/scdirectorimunicipal/app.html?id=5328,http://continguts.intra.gavaciutat.net/documents/76203/2268237/comerc.png
Pizzeria Montevideo. Com Gava,"avinguda eramprunyà, 22, 08850 Gavà",936333988 678913694,vanismale@hotmail.com,,Bar - Restaurant,41.309486,1.997562,"(41.309486, 1.997562)",http://portals.ajuntament.gava.cat/scdirectorimunicipal/app.html?id=4761,http://continguts.intra.gavaciutat.net/documents/76203/2268237/restauracio.png
Mapfre Assegurances,"avinguda eramprunyà, 32, 08850 Gavà",936382336 ,marinlm@mapfre.com,http://www.mapfre.com,Serveis,41.309895,1.995968,"(41.309895, 1.995968)",http://portals.ajuntament.gava.cat/scdirectorimunicipal/app.html?id=4772,http://continguts.intra.gavaciutat.net/documents/76203/2268237/comerc.png
Bar Los Molinos,"avinguda eramprunyà, 35, 08850 Gavà", 639653090,,,Bar,41.309486,1.997562,"(41.309486, 1.997562)",http://portals.ajuntament.gava.cat/scdirectorimunicipal/app.html?id=4681,http://continguts.intra.gavaciutat.net/documents/76203/2268237/restauracio.png
Peluquería M. Carmen,"avinguda eramprunyà, 49, 08850 Gavà",699442720 ,,,Serveis,41.309486,1.997562,"(41.309486, 1.997562)",http://portals.ajuntament.gava.cat/scdirectorimunicipal/app.html?id=4773,http://continguts.intra.gavaciutat.net/documents/76203/2268237/comerc.png
Clínica Ocular Dr. Amilburu,"avinguda eramprunyà, 5, 08850 Gavà",936384873 679647542,,,Serveis,41.309067,1.999453,"(41.309067, 1.999453)",http://portals.ajuntament.gava.cat/scdirectorimunicipal/app.html?id=4701,http://continguts.intra.gavaciutat.net/documents/76203/2268237/comerc.png
Clínica Ocular Dr. Amilburu,"avinguda eramprunyà, 5, 08850 Gavà",936384873 679647542,,,Serveis,41.309067,1.999453,"(41.309067, 1.999453)",http://portals.ajuntament.gava.cat/scdirectorimunicipal/app.html?id=1959,http://continguts.intra.gavaciutat.net/documents/76203/2268237/comerc.png
Body&Soul,"avinguda eramprunyà, 5, 08850 Gavà", 661176390,jvera1979@hotmail.com,http://www.bodyandsoul.es,Serveis,41.309067,1.999453,"(41.309067, 1.999453)",http://portals.ajuntament.gava.cat/scdirectorimunicipal/app.html?id=4304,http://continguts.intra.gavaciutat.net/documents/76203/2268237/comerc.png
Perruqueria Guillermo,"avinguda eramprunyà, 5, 08850 Gavà",936384670 ,guiyermogoma@hotmail.com,,Serveis,41.309067,1.999453,"(41.309067, 1.999453)",http://portals.ajuntament.gava.cat/scdirectorimunicipal/app.html?id=4107,http://continguts.intra.gavaciutat.net/documents/76203/2268237/comerc.png
"Totauto Gavà, SL","avinguda eramprunyà, 5, 08850 Gavà",936380997 ,comercial@totautogava.es,http://www.totautogava.es/,Automoció i carburants,41.309067,1.999453,"(41.309067, 1.999453)",http://portals.ajuntament.gava.cat/scdirectorimunicipal/app.html?id=5235,http://continguts.intra.gavaciutat.net/documents/76203/2268237/comerc.png
Bar la Estel'la,"avinguda eramprunyà, 6, 08850 Gavà",936629739 633941313,jtumillovera@yahoo.es,,Bar,41.30938,1.999307,"(41.30938, 1.999307)",http://portals.ajuntament.gava.cat/scdirectorimunicipal/app.html?id=4683,http://continguts.intra.gavaciutat.net/documents/76203/2268237/restauracio.png
Rostisseria Els Quatre Plats ,"avinguda joan carles i, 4, 08850 Gavà",936389809 ,anacel63@gmail.com,,Restaurant,41.298878,2.00314,"(41.298878, 2.00314)",http://portals.ajuntament.gava.cat/scdirectorimunicipal/app.html?id=2421,http://continguts.intra.gavaciutat.net/documents/76203/2268237/restauracio.png
Rostisseria Els Quatre Plats ,"avinguda joan carles i, 4, 08850 Gavà",936389809 ,anacel63@gmail.com,,Restaurant,41.298878,2.00314,"(41.298878, 2.00314)",http://portals.ajuntament.gava.cat/scdirectorimunicipal/app.html?id=2322,http://continguts.intra.gavaciutat.net/documents/76203/2268237/restauracio.png
Floristeria El Bosc,"avinguda joan carles i, 4, 08850 Gavà",936389770 ,,,Equipament de la llar,41.298878,2.00314,"(41.298878, 2.00314)",http://portals.ajuntament.gava.cat/scdirectorimunicipal/app.html?id=3916,http://continguts.intra.gavaciutat.net/documents/76203/2268237/comerc.png
Multijob 24H,"avinguda joan carles i, 46, 08850 Gavà", 667265320,multijob24@multijob24.com,,Serveis,41.29926,2.003772,"(41.29926, 2.003772)",http://portals.ajuntament.gava.cat/scdirectorimunicipal/app.html?id=421,http://continguts.intra.gavaciutat.net/documents/76203/2268237/comerc.png
Farmàcia Les Bòbiles ,"avinguda joan carles i, 56, 08850 Gavà",936381979 ,farmacia@farmacialesbobiles.com,http://facebook.com/farmacia.gava,Salut - Bellesa - Centres esportius,41.30577,1.994131,"(41.30577, 1.994131)",http://portals.ajuntament.gava.cat/scdirectorimunicipal/app.html?id=506,http://continguts.intra.gavaciutat.net/documents/76203/2268237/serveis.png
Copiflash ,"avinguda joan carles i, 56, 08850 Gavà",936380389 ,gava2@copiflash.com,http://www.copiflash.com,Serveis,41.30577,1.994131,"(41.30577, 1.994131)",http://portals.ajuntament.gava.cat/scdirectorimunicipal/app.html?id=4266,http://continguts.intra.gavaciutat.net/documents/76203/2268237/comerc.png
Forn del Pi,"avinguda joan xxiii, 14, 08850 Gavà", 667891100,,,Alimentació (quotidià alimentari),41.308384,2.000372,"(41.308384, 2.000372)",http://portals.ajuntament.gava.cat/scdirectorimunicipal/app.html?id=4781,http://continguts.intra.gavaciutat.net/documents/76203/2268237/comerc.png
Bar Piñol,"avinguda joan xxiii, 14, 08850 Gavà",936624502 ,,,Bar,41.308384,2.000372,"(41.308384, 2.000372)",http://portals.ajuntament.gava.cat/scdirectorimunicipal/app.html?id=3765,http://continguts.intra.gavaciutat.net/documents/76203/2268237/restauracio.png
Sushi Chef,"avinguda mar, 1, 08850 Gavà",936331500 ,,http://www.sushi-chef.eu,Restaurant,41.281975,2.018639,"(41.281975, 2.018639)",http://portals.ajuntament.gava.cat/scdirectorimunicipal/app.html?id=2861,http://continguts.intra.gavaciutat.net/documents/76203/2268237/restauracio.png
Domus - Real Estate Domestic Services,"avinguda mar, 3 local 6, 08850 Gavà",936331210 660981771,info@domusblue.com,http://www.ydomus.es,Serveis,41.302826,2.001935,"(41.302826, 2.001935)",http://portals.ajuntament.gava.cat/scdirectorimunicipal/app.html?id=5279,http://continguts.intra.gavaciutat.net/documents/76203/2268237/comerc.png
Apartaments San Diego,"cami pinar, 8, 08850 Gavà",936451888 ,,,Hotel - Apartaments,41.27169,2.002061,"(41.27169, 2.002061)",http://portals.ajuntament.gava.cat/scdirectorimunicipal/app.html?id=5139,http://continguts.intra.gavaciutat.net/documents/76203/2268237/restauracio.png
Maía Dolores Molero Nieto,"carrer antoni gaudí, 11, 08850 Gavà", ,,,Equipament de la llar,41.307846,2.003798,"(41.307846, 2.003798)",http://portals.ajuntament.gava.cat/scdirectorimunicipal/app.html?id=5476,http://continguts.intra.gavaciutat.net/documents/76203/2268237/comerc.png
Corallus,"carrer antoni gaudí, 25, 08850 Gavà",936623393 607257545,corallus@bichosfera.com,http://www.jansans.com,Equipament de la llar,41.30776,2.003527,"(41.30776, 2.003527)",http://portals.ajuntament.gava.cat/scdirectorimunicipal/app.html?id=4297,http://continguts.intra.gavaciutat.net/documents/76203/2268237/comerc.png
Autoescoles Latorre,"carrer antoni gaudí, 33, 08850 Gavà",936623105 667726587,info@autoescolalatorre.com,,Serveis,41.3075,2.002588,"(41.3075, 2.002588)",http://portals.ajuntament.gava.cat/scdirectorimunicipal/app.html?id=3735,http://continguts.intra.gavaciutat.net/documents/76203/2268237/comerc.png
"Mimos Artesanía, SCP","carrer antoni gaudí, 39, 08850 Gavà",687237226 ,artesaniamimos@hotmail.com,,Turisme - Cultura - Oci,41.3075,2.002588,"(41.3075, 2.002588)",http://portals.ajuntament.gava.cat/scdirectorimunicipal/app.html?id=1029,http://continguts.intra.gavaciutat.net/documents/76203/2268237/serveis.png
Bar Nou cafè,"carrer apel·les mestres, 1, 08850 Gavà", 693734374,,,Bar,41.30317,2.003213,"(41.30317, 2.003213)",http://portals.ajuntament.gava.cat/scdirectorimunicipal/app.html?id=4348,http://continguts.intra.gavaciutat.net/documents/76203/2268237/restauracio.png
"Xarcuteria Carnisseria ""Casa Elias""","carrer apel·les mestres, 11 bajo 4, 08850 Gavà",936389961 696314376,,,Alimentació (quotidià alimentari),41.30317,2.003213,"(41.30317, 2.003213)",http://portals.ajuntament.gava.cat/scdirectorimunicipal/app.html?id=4929,http://continguts.intra.gavaciutat.net/documents/76203/2268237/comerc.png
Centre Dolç,"carrer apel·les mestres, 41, 08850 Gavà",600217108 ,,,Alimentació (quotidià alimentari),41.30317,2.003213,"(41.30317, 2.003213)",http://portals.ajuntament.gava.cat/scdirectorimunicipal/app.html?id=901,http://continguts.intra.gavaciutat.net/documents/76203/2268237/comerc.png
Bar Bruno,"carrer apel·les mestres, 76, 08850 Gavà", ,,,Bar,41.30317,2.003213,"(41.30317, 2.003213)",http://portals.ajuntament.gava.cat/scdirectorimunicipal/app.html?id=4857,http://continguts.intra.gavaciutat.net/documents/76203/2268237/restauracio.png
Electricidad del automovil J. Badell,"carrer artur costa, 10, 08850 Gavà",936626853 ,,,Automoció i carburants,41.304394,2.007793,"(41.304394, 2.007793)",http://portals.ajuntament.gava.cat/scdirectorimunicipal/app.html?id=4859,http://continguts.intra.gavaciutat.net/documents/76203/2268237/comerc.png
Gestoria Tarrida,"carrer artur costa, 4, 08850 Gavà",936620554 ,,http://www.tarrida.com,Serveis,41.30317,2.003213,"(41.30317, 2.003213)",http://portals.ajuntament.gava.cat/scdirectorimunicipal/app.html?id=3950,http://continguts.intra.gavaciutat.net/documents/76203/2268237/comerc.png
Perruqueria Style Estetica,"carrer artur costa, 8, 08850 Gavà",936623046 677330014,,,Serveis,41.30441,2.007814,"(41.30441, 2.007814)",http://portals.ajuntament.gava.cat/scdirectorimunicipal/app.html?id=4124,http://continguts.intra.gavaciutat.net/documents/76203/2268237/comerc.png
Alimentación Vegaz,"carrer ausiàs marc, 6, 08850 Gavà",607964892 ,,,Alimentació (quotidià alimentari),41.300335,2.00031,"(41.300335, 2.00031)",http://portals.ajuntament.gava.cat/scdirectorimunicipal/app.html?id=4325,http://continguts.intra.gavaciutat.net/documents/76203/2268237/comerc.png
Gavà Óptic,"carrer begues, 5, 08850 Gavà",936388804 ,info@gavaoptic.com,http://www.gavaoptic.com,Lleure i cultura,41.308514,1.999986,"(41.308514, 1.999986)",http://portals.ajuntament.gava.cat/scdirectorimunicipal/app.html?id=3943,http://continguts.intra.gavaciutat.net/documents/76203/2268237/comerc.png
Advocat Krier Alexz,"carrer begur, 1, 08850 Gavà",936330726 ,,,Serveis,41.269653,2.035134,"(41.269653, 2.035134)",http://portals.ajuntament.gava.cat/scdirectorimunicipal/app.html?id=5130,http://continguts.intra.gavaciutat.net/documents/76203/2268237/comerc.png
Ciber NYR@.COM,"carrer cap de creus, 14, 08850 Gavà",936334349 678106108,,,Serveis,41.3035,2.004234,"(41.3035, 2.004234)",http://portals.ajuntament.gava.cat/scdirectorimunicipal/app.html?id=3824,http://continguts.intra.gavaciutat.net/documents/76203/2268237/comerc.png
"Righetti Forners, SL","carrer cap de creus, 30, 08850 Gavà",936620135 646721580,righettiforners@gremipa.com,,Alimentació (quotidià alimentari),41.30317,2.003213,"(41.30317, 2.003213)",http://portals.ajuntament.gava.cat/scdirectorimunicipal/app.html?id=4195,http://continguts.intra.gavaciutat.net/documents/76203/2268237/comerc.png
M de Pekes ,"carrer cap de creus, 32, 08850 Gavà",931270773 617219445,monikatorralvo@gmail.com,,Equipament de la persona,41.303986,2.004468,"(41.303986, 2.004468)",http://portals.ajuntament.gava.cat/scdirectorimunicipal/app.html?id=5365,http://continguts.intra.gavaciutat.net/documents/76203/2268237/comerc.png
Nova Imatge,"carrer cap de creus, 5, 08850 Gavà",936384474 685188373,novaimatge@hotmail.com,,Serveis,41.303986,2.004468,"(41.303986, 2.004468)",http://portals.ajuntament.gava.cat/scdirectorimunicipal/app.html?id=4062,http://continguts.intra.gavaciutat.net/documents/76203/2268237/comerc.png
Ohh! Paper Scrac,"carrer castelldefels, 5, 08850 Gavà",936384233 ,ohhpaper@gmail.com,,Lleure i cultura,41.30284,2.005306,"(41.30284, 2.005306)",http://portals.ajuntament.gava.cat/scdirectorimunicipal/app.html?id=882,http://continguts.intra.gavaciutat.net/documents/76203/2268237/comerc.png
Tentazione,"carrer castelldefels, 9, 08850 Gavà",936334985 615193547,,http://www.heladostentazione.com,Alimentació (quotidià alimentari),41.301376,2.004274,"(41.301376, 2.004274)",http://portals.ajuntament.gava.cat/scdirectorimunicipal/app.html?id=4869,http://continguts.intra.gavaciutat.net/documents/76203/2268237/comerc.png
Fem Temps,"carrer lluís dalmau, 47, 08850 Gavà",936336440 655898144,,,Bar,41.303226,1.998489,"(41.303226, 1.998489)",http://portals.ajuntament.gava.cat/scdirectorimunicipal/app.html?id=4154,http://continguts.intra.gavaciutat.net/documents/76203/2268237/restauracio.png
Cuines Martí,"carrer major, 19, 08850 Gavà",936628096 653973707,cuinesmarti@cuinesmarti.com,,Equipament de la llar,41.304302,2.00539,"(41.304302, 2.00539)",http://portals.ajuntament.gava.cat/scdirectorimunicipal/app.html?id=4807,http://continguts.intra.gavaciutat.net/documents/76203/2268237/comerc.png
Wonder Moda,"carrer major, 31, 08850 Gavà",936628601 ,wondermoda@gmail.com,http://www.wondermoda.com,Equipament de la persona,41.304394,2.005401,"(41.304394, 2.005401)",http://portals.ajuntament.gava.cat/scdirectorimunicipal/app.html?id=4896,http://continguts.intra.gavaciutat.net/documents/76203/2268237/comerc.png
Shaco Aruba Gavà,"carrer manuel de falla, 9, 08850 Gavà",936388149 617309292,shacoaruba@tiendashaco.es,http://www.shaco.es,Equipament de la llar,41.305637,1.9955,"(41.305637, 1.9955)",http://portals.ajuntament.gava.cat/scdirectorimunicipal/app.html?id=4720,http://continguts.intra.gavaciutat.net/documents/76203/2268237/comerc.png
Taller de reparació calçat Fernandez,"carrer mare de déu de bruguers, 22, 08850 Gavà",936628752 630513373,,,Serveis,41.30743,2.003677,"(41.30743, 2.003677)",http://portals.ajuntament.gava.cat/scdirectorimunicipal/app.html?id=4220,http://continguts.intra.gavaciutat.net/documents/76203/2268237/comerc.png
Rápido Fernández,"carrer mare de déu de bruguers, 22, 08850 Gavà",936628752 ,,,Equipament de la llar,41.30743,2.003677,"(41.30743, 2.003677)",http://portals.ajuntament.gava.cat/scdirectorimunicipal/app.html?id=4746,http://continguts.intra.gavaciutat.net/documents/76203/2268237/comerc.png
"Instalaciones Terrés, SA","carrer mare de déu de bruguers, 46, 08850 Gavà",936334060 610733845,,,Equipament de la llar,41.307156,2.002561,"(41.307156, 2.002561)",http://portals.ajuntament.gava.cat/scdirectorimunicipal/app.html?id=3976,http://continguts.intra.gavaciutat.net/documents/76203/2268237/comerc.png
"Begues Seguridad, SL","carrer mare de déu de la mercè, 13, 08850 Gavà",902102870 ,mtronchoni@beguesseguridad.com,,Serveis,41.30469,2.006833,"(41.30469, 2.006833)",http://portals.ajuntament.gava.cat/scdirectorimunicipal/app.html?id=1521,http://continguts.intra.gavaciutat.net/documents/76203/2268237/comerc.png
Restaurant Capri Pizza,"carrer mare de déu de la mercè, 13, 08850 Gavà",936383132 ,,,Bar - Restaurant,41.30469,2.006833,"(41.30469, 2.006833)",http://portals.ajuntament.gava.cat/scdirectorimunicipal/app.html?id=4167,http://continguts.intra.gavaciutat.net/documents/76203/2268237/restauracio.png
Beatriz Merino Mesa,"carrer mare de déu de montserrat, 11, 08850 Gavà", ,,,Serveis,41.303856,2.00181,"(41.303856, 2.00181)",http://portals.ajuntament.gava.cat/scdirectorimunicipal/app.html?id=5398,http://continguts.intra.gavaciutat.net/documents/76203/2268237/comerc.png
Mi Pelu,"carrer mare de déu de montserrat, 11, 08850 Gavà",936383329 ,,,Serveis,41.303856,2.00181,"(41.303856, 2.00181)",http://portals.ajuntament.gava.cat/scdirectorimunicipal/app.html?id=4936,http://continguts.intra.gavaciutat.net/documents/76203/2268237/comerc.png
Bar Frankfurt Yaque,"carrer mare de déu de montserrat, 11, 08850 Gavà", 679244266,,,Bar,41.303856,2.00181,"(41.303856, 2.00181)",http://portals.ajuntament.gava.cat/scdirectorimunicipal/app.html?id=4935,http://continguts.intra.gavaciutat.net/documents/76203/2268237/restauracio.png
Peña Madridista de Gava,"carrer montflorit, 85, 08850 Gavà", 661508950,fsilva@renfe.es,,Serveis,41.30351,2.0001,"(41.30351, 2.0001)",http://portals.ajuntament.gava.cat/scdirectorimunicipal/app.html?id=4913,http://continguts.intra.gavaciutat.net/documents/76203/2268237/comerc.png
Chiquiboy,"carrer montflorit, 85, 08850 Gavà",936384207 695191038,,,Equipament de la persona,41.30351,2.0001,"(41.30351, 2.0001)",http://portals.ajuntament.gava.cat/scdirectorimunicipal/app.html?id=4917,http://continguts.intra.gavaciutat.net/documents/76203/2268237/comerc.png
Parafàrmacia Gavà,"carrer montflorit, 85, 08850 Gavà",937978497 ,hola@parafarmacia.com,http://www.parafarmacia.com,Salut i cosmètica  (quotidià no alimentari),41.30351,2.0001,"(41.30351, 2.0001)",http://portals.ajuntament.gava.cat/scdirectorimunicipal/app.html?id=5540,http://continguts.intra.gavaciutat.net/documents/76203/2268237/comerc.png
"Toldos Montflorit, SL","carrer montflorit, 88, 08850 Gavà",936627552 647714829,toldos-montflorit@hotmail.com,http://www.toldosmonflorit.es,Equipament de la llar,41.303444,2.000278,"(41.303444, 2.000278)",http://portals.ajuntament.gava.cat/scdirectorimunicipal/app.html?id=4242,http://continguts.intra.gavaciutat.net/documents/76203/2268237/comerc.png
Ahmed Ouhazem,"carrer montflorit, 88, 08850 Gavà", 632838945,,,Alimentació (quotidià alimentari),41.303444,2.000278,"(41.303444, 2.000278)",http://portals.ajuntament.gava.cat/scdirectorimunicipal/app.html?id=5572,http://continguts.intra.gavaciutat.net/documents/76203/2268237/comerc.png
2Tijeras,"carrer montflorit, 89, 08850 Gavà",936621115 ,,,Equipament de la persona,41.304794,1.99951,"(41.304794, 1.99951)",http://portals.ajuntament.gava.cat/scdirectorimunicipal/app.html?id=4235,http://continguts.intra.gavaciutat.net/documents/76203/2268237/comerc.png
Pastelería Panadería oh.K.Bó,"carrer montflorit, 91, 08850 Gavà",936336998 ,,,Alimentació (quotidià alimentari),41.304897,1.999461,"(41.304897, 1.999461)",http://portals.ajuntament.gava.cat/scdirectorimunicipal/app.html?id=4085,http://continguts.intra.gavaciutat.net/documents/76203/2268237/comerc.png
Dia,"carrer montflorit, 93-95, 08850 Gavà",394590055 ,,,Alimentació (quotidià alimentari),41.305004,1.999408,"(41.305004, 1.999408)",http://portals.ajuntament.gava.cat/scdirectorimunicipal/app.html?id=4908,http://continguts.intra.gavaciutat.net/documents/76203/2268237/comerc.png
Yasmin,"carrer montflorit, 97, 08850 Gavà",936626001 ,,,Serveis,41.305187,1.99932,"(41.305187, 1.99932)",http://portals.ajuntament.gava.cat/scdirectorimunicipal/app.html?id=4912,http://continguts.intra.gavaciutat.net/documents/76203/2268237/comerc.png
014,"carrer montserrat roig, 2, 08850 Gavà",936389899 635594061,,http://www.014.cat,Serveis,41.3095,1.990922,"(41.3095, 1.990922)",http://portals.ajuntament.gava.cat/scdirectorimunicipal/app.html?id=5098,http://continguts.intra.gavaciutat.net/documents/76203/2268237/comerc.png
Caravaning City,"carrer màquina, 56, 08850 Gavà",902024670 ,info@caravaningcity.com,http://www.caravaningcity.com,Automoció i carburants,41.29615,2.010775,"(41.29615, 2.010775)",http://portals.ajuntament.gava.cat/scdirectorimunicipal/app.html?id=3804,http://continguts.intra.gavaciutat.net/documents/76203/2268237/comerc.png
"Viajes internacional Gavà, SA ","carrer màrtirs del setge de 1714, 31, 08850 Gavà",936381955 ,,,Serveis,41.305466,2.006284,"(41.305466, 2.006284)",http://portals.ajuntament.gava.cat/scdirectorimunicipal/app.html?id=4845,http://continguts.intra.gavaciutat.net/documents/76203/2268237/comerc.png
Font,"carrer màrtirs del setge de 1714, 31, 08850 Gavà",936620228 615060382,,,Equipament de la llar,41.305466,2.006284,"(41.305466, 2.006284)",http://portals.ajuntament.gava.cat/scdirectorimunicipal/app.html?id=3917,http://continguts.intra.gavaciutat.net/documents/76203/2268237/comerc.png
"Apoline 2014, SL ","carrer progrés, 69, 08850 Gavà", ,,,Salut - Bellesa - Centres esportius,41.305733,2.004394,"(41.305733, 2.004394)",http://portals.ajuntament.gava.cat/scdirectorimunicipal/app.html?id=5518,http://continguts.intra.gavaciutat.net/documents/76203/2268237/serveis.png
Unibail-Rodamco,"carrer progrés, 69, 08850 Gavà",936383929 ,alejandra.vinas@unibail-rodamco.com,http://www.unibail-rodamco.com,Altres serveis a empreses,41.305733,2.004394,"(41.305733, 2.004394)",http://portals.ajuntament.gava.cat/scdirectorimunicipal/app.html?id=3461,http://continguts.intra.gavaciutat.net/documents/76203/2268237/serveis.png
"Gama Corte, SL","carrer progrés, 69, 08850 Gavà", ,,,Serveis,41.305733,2.004394,"(41.305733, 2.004394)",http://portals.ajuntament.gava.cat/scdirectorimunicipal/app.html?id=5464,http://continguts.intra.gavaciutat.net/documents/76203/2268237/comerc.png
Top Tapa (Centre Comercial Barnasud),"carrer progrés, 69, 08850 Gavà", ,,,Restaurant,41.305733,2.004394,"(41.305733, 2.004394)",http://portals.ajuntament.gava.cat/scdirectorimunicipal/app.html?id=4243,http://continguts.intra.gavaciutat.net/documents/76203/2268237/restauracio.png
Restaurant Gavà Wok,"carrer progrés, 69, 08850 Gavà",936380110 ,,,Restaurant,41.305733,2.004394,"(41.305733, 2.004394)",http://portals.ajuntament.gava.cat/scdirectorimunicipal/app.html?id=4347,http://continguts.intra.gavaciutat.net/documents/76203/2268237/restauracio.png
Restaurant Pica Tapa (Centre Comercial Barnasud),"carrer progrés, 69, 08850 Gavà",936627105 ,,,Restaurant,41.305733,2.004394,"(41.305733, 2.004394)",http://portals.ajuntament.gava.cat/scdirectorimunicipal/app.html?id=4186,http://continguts.intra.gavaciutat.net/documents/76203/2268237/restauracio.png
Restaurant Oriental,"carrer progrés, 69, 08850 Gavà", ,,,Restaurant,41.305733,2.004394,"(41.305733, 2.004394)",http://portals.ajuntament.gava.cat/scdirectorimunicipal/app.html?id=4185,http://continguts.intra.gavaciutat.net/documents/76203/2268237/restauracio.png
Burguer King,"carrer progrés, 69, 08850 Gavà", ,,,Restaurant,41.305733,2.004394,"(41.305733, 2.004394)",http://portals.ajuntament.gava.cat/scdirectorimunicipal/app.html?id=5421,http://continguts.intra.gavaciutat.net/documents/76203/2268237/restauracio.png
"Exner Dreams, SL","carrer progrés, 69, 08850 Gavà", ,,,Equipament de la persona,41.305733,2.004394,"(41.305733, 2.004394)",http://portals.ajuntament.gava.cat/scdirectorimunicipal/app.html?id=5532,http://continguts.intra.gavaciutat.net/documents/76203/2268237/comerc.png
"Exner Dreams, SL","carrer progrés, 69, 08850 Gavà", ,,,Equipament de la persona,41.305733,2.004394,"(41.305733, 2.004394)",http://portals.ajuntament.gava.cat/scdirectorimunicipal/app.html?id=5531,http://continguts.intra.gavaciutat.net/documents/76203/2268237/comerc.png
All Super Cell,"carrer progrés, 69, 08850 Gavà", ,,,Equipament de la persona,41.305733,2.004394,"(41.305733, 2.004394)",http://portals.ajuntament.gava.cat/scdirectorimunicipal/app.html?id=5474,http://continguts.intra.gavaciutat.net/documents/76203/2268237/comerc.png
"Zona Evods, SL","carrer progrés, 69, 08850 Gavà", ,,,Equipament de la persona,41.305733,2.004394,"(41.305733, 2.004394)",http://portals.ajuntament.gava.cat/scdirectorimunicipal/app.html?id=5437,http://continguts.intra.gavaciutat.net/documents/76203/2268237/comerc.png
Bauhaus,"carrer progrés, 69, 08850 Gavà",936382160 ,,http://www.bauhaus.es,Equipament de la llar,41.305733,2.004394,"(41.305733, 2.004394)",http://portals.ajuntament.gava.cat/scdirectorimunicipal/app.html?id=1037,http://continguts.intra.gavaciutat.net/documents/76203/2268237/comerc.png
"Kifemdi, SL","carrer progrés, 69, 08850 Gavà", ,,,Equipament de la llar,41.305733,2.004394,"(41.305733, 2.004394)",http://portals.ajuntament.gava.cat/scdirectorimunicipal/app.html?id=5441,http://continguts.intra.gavaciutat.net/documents/76203/2268237/comerc.png
Media Markt,"carrer progrés, 69, 08850 Gavà",936735400 ,,http://www.mediamarkt.es,Equipament de la llar,41.305733,2.004394,"(41.305733, 2.004394)",http://portals.ajuntament.gava.cat/scdirectorimunicipal/app.html?id=4335,http://continguts.intra.gavaciutat.net/documents/76203/2268237/comerc.png
Yves Rocher,"carrer progrés, 69, 08850 Gavà",936388050 ,,,Salut i cosmètica  (quotidià no alimentari),41.305733,2.004394,"(41.305733, 2.004394)",http://portals.ajuntament.gava.cat/scdirectorimunicipal/app.html?id=4324,http://continguts.intra.gavaciutat.net/documents/76203/2268237/comerc.png
Drim,"carrer progrés, 69, 08850 Gavà",936333409 ,,,Lleure i cultura,41.305733,2.004394,"(41.305733, 2.004394)",http://portals.ajuntament.gava.cat/scdirectorimunicipal/app.html?id=5506,http://continguts.intra.gavaciutat.net/documents/76203/2268237/comerc.png
Drim,"carrer progrés, 69, 08850 Gavà",936333409 ,,,Lleure i cultura,41.305733,2.004394,"(41.305733, 2.004394)",http://portals.ajuntament.gava.cat/scdirectorimunicipal/app.html?id=5523,http://continguts.intra.gavaciutat.net/documents/76203/2268237/comerc.png
Optica 2000 Barnasud,"carrer progrés, 69, 08850 Gavà",936626864 ,optica2000tc_501gava@elcorteingles.es,,Lleure i cultura,41.305733,2.004394,"(41.305733, 2.004394)",http://portals.ajuntament.gava.cat/scdirectorimunicipal/app.html?id=5109,http://continguts.intra.gavaciutat.net/documents/76203/2268237/comerc.png
Oscar José Tortonese,"carrer progrés, 69, 08850 Gavà", ,,,Alimentació (quotidià alimentari),41.305733,2.004394,"(41.305733, 2.004394)",http://portals.ajuntament.gava.cat/scdirectorimunicipal/app.html?id=5429,http://continguts.intra.gavaciutat.net/documents/76203/2268237/comerc.png
Líder de Estambul,"carrer progrés, 69, 08850 Gavà", 602160439,,,Bar - Restaurant,41.305733,2.004394,"(41.305733, 2.004394)",http://portals.ajuntament.gava.cat/scdirectorimunicipal/app.html?id=5445,http://continguts.intra.gavaciutat.net/documents/76203/2268237/restauracio.png
"Rainbow Hana, SL","carrer progrés, 69, 08850 Gavà", ,,,Bar - Restaurant,41.305733,2.004394,"(41.305733, 2.004394)",http://portals.ajuntament.gava.cat/scdirectorimunicipal/app.html?id=5444,http://continguts.intra.gavaciutat.net/documents/76203/2268237/restauracio.png
Patricia Blanca Santellán Núñez,"carrer progrés, 69, 08850 Gavà", ,,,Bar - Restaurant,41.305733,2.004394,"(41.305733, 2.004394)",http://portals.ajuntament.gava.cat/scdirectorimunicipal/app.html?id=5385,http://continguts.intra.gavaciutat.net/documents/76203/2268237/restauracio.png
José Francisco Molla Méndez,"carrer progrés, 69, 08850 Gavà", ,,,Bar,41.305733,2.004394,"(41.305733, 2.004394)",http://portals.ajuntament.gava.cat/scdirectorimunicipal/app.html?id=5457,http://continguts.intra.gavaciutat.net/documents/76203/2268237/restauracio.png
La Jijonenca,"carrer salvador lluch, 4, 08850 Gavà", 645995437,,,Alimentació (quotidià alimentari),41.30593,2.004763,"(41.30593, 2.004763)",http://portals.ajuntament.gava.cat/scdirectorimunicipal/app.html?id=3946,http://continguts.intra.gavaciutat.net/documents/76203/2268237/comerc.png
"Samper de Tahalassa Coorp, SL","carrer salvador lluch, 4, 08850 Gavà", ,,,Alimentació (quotidià alimentari),41.30593,2.004763,"(41.30593, 2.004763)",http://portals.ajuntament.gava.cat/scdirectorimunicipal/app.html?id=5344,http://continguts.intra.gavaciutat.net/documents/76203/2268237/comerc.png
Menja Futur Gavà,"carrer salvador lluch, 4, 08850 Gavà", ,,http://www.menjafutur.org,Alimentació (quotidià alimentari),41.30593,2.004763,"(41.30593, 2.004763)",http://portals.ajuntament.gava.cat/scdirectorimunicipal/app.html?id=5310,http://continguts.intra.gavaciutat.net/documents/76203/2268237/comerc.png
Joyeria Tratalia,"carrer sant nicasi, 81, 08850 Gavà",931798846 615560005,,,Equipament de la persona,41.30836,2.001686,"(41.30836, 2.001686)",http://portals.ajuntament.gava.cat/scdirectorimunicipal/app.html?id=5149,http://continguts.intra.gavaciutat.net/documents/76203/2268237/comerc.png
Armeria Muñoz,"carrer sant pere, 13, 08850 Gavà",936620395 656999712,magda.411@hotmail.com,,Equipament de la persona,41.30412,2.001999,"(41.30412, 2.001999)",http://portals.ajuntament.gava.cat/scdirectorimunicipal/app.html?id=4055,http://continguts.intra.gavaciutat.net/documents/76203/2268237/comerc.png
Fruites de l'Illa,"carrer sant pere, 47, 08850 Gavà",936382473 665521315,lolita_castelldefels@hotmail.com,,Alimentació (quotidià alimentari),41.30412,2.001999,"(41.30412, 2.001999)",http://portals.ajuntament.gava.cat/scdirectorimunicipal/app.html?id=3931,http://continguts.intra.gavaciutat.net/documents/76203/2268237/comerc.png
Opticentre,"carrer sant pere, 90, 08850 Gavà",936384607 ,,,Lleure i cultura,41.303795,2.000504,"(41.303795, 2.000504)",http://portals.ajuntament.gava.cat/scdirectorimunicipal/app.html?id=4069,http://continguts.intra.gavaciutat.net/documents/76203/2268237/comerc.png
"Forn M. Cruz, SL","passeig joan maragall, 13, 08850 Gavà",936621889 ,,,Alimentació (quotidià alimentari),41.302616,2.00176,"(41.302616, 2.00176)",http://portals.ajuntament.gava.cat/scdirectorimunicipal/app.html?id=3918,http://continguts.intra.gavaciutat.net/documents/76203/2268237/comerc.png
A Ávila ,"plaça jaume balmes, 6, 08850 Gavà",936624011 ,,,Serveis,41.304115,1.999914,"(41.304115, 1.999914)",http://portals.ajuntament.gava.cat/scdirectorimunicipal/app.html?id=3701,http://continguts.intra.gavaciutat.net/documents/76203/2268237/comerc.png
Gestoria Izquierdo,"rambla joaquim vayreda, 39, 08850 Gavà",936333580 ,izquierdoaso@cambrabcn.es,http://www.izquierdoassessors.com,Serveis,41.304665,2.008416,"(41.304665, 2.008416)",http://portals.ajuntament.gava.cat/scdirectorimunicipal/app.html?id=3949,http://continguts.intra.gavaciutat.net/documents/76203/2268237/comerc.png
Centro de Yoga Lakshmi y Arjuna,"rambla pompeu fabra, 85, 08850 Gavà",936621620 ,yogaarjuna@yahoo.es,http://www.yogaarjuna.com,Serveis,41.309425,2.002803,"(41.309425, 2.002803)",http://portals.ajuntament.gava.cat/scdirectorimunicipal/app.html?id=4718,http://continguts.intra.gavaciutat.net/documents/76203/2268237/comerc.png
Ramplax,"rambla pompeu fabra, 85, 08850 Gavà",936336250 676251548,,,Bar,41.309425,2.002803,"(41.309425, 2.002803)",http://portals.ajuntament.gava.cat/scdirectorimunicipal/app.html?id=4144,http://continguts.intra.gavaciutat.net/documents/76203/2268237/restauracio.png
La Jijonenca,"rambla pompeu fabra, 85, 08850 Gavà",936383430 ,,,Bar,41.309425,2.002803,"(41.309425, 2.002803)",http://portals.ajuntament.gava.cat/scdirectorimunicipal/app.html?id=5594,http://continguts.intra.gavaciutat.net/documents/76203/2268237/restauracio.png
Peluqueria Rosana Andreu,"carrer mare de déu de montserrat, 113, 08850 Gavà",936628555 616866707,,,Serveis,41.308147,1.999653,"(41.308147, 1.999653)",http://portals.ajuntament.gava.cat/scdirectorimunicipal/app.html?id=4110,http://continguts.intra.gavaciutat.net/documents/76203/2268237/comerc.png
"Fram-Gavà, SL","carrer mare de déu de montserrat, 113, 08850 Gavà",936625090 616444414,,,Equipament de la llar,41.308147,1.999653,"(41.308147, 1.999653)",http://portals.ajuntament.gava.cat/scdirectorimunicipal/app.html?id=4937,http://continguts.intra.gavaciutat.net/documents/76203/2268237/comerc.png
"Carpinteria Sierra e Hijos, SL","carrer mare de déu de montserrat, 131, 08850 Gavà",936629162 ,,,Equipament de la llar,41.30862,1.999444,"(41.30862, 1.999444)",http://portals.ajuntament.gava.cat/scdirectorimunicipal/app.html?id=3812,http://continguts.intra.gavaciutat.net/documents/76203/2268237/comerc.png
Somnis (Bazar del Niño),"carrer mare de déu de montserrat, 16, 08850 Gavà",936621490 ,,,Lleure i cultura,41.30431,2.001717,"(41.30431, 2.001717)",http://portals.ajuntament.gava.cat/scdirectorimunicipal/app.html?id=4211,http://continguts.intra.gavaciutat.net/documents/76203/2268237/comerc.png
Ferreteria Esteve,"carrer mare de déu de montserrat, 29, 08850 Gavà",936623855 ,,,Lleure i cultura,41.304718,2.001384,"(41.304718, 2.001384)",http://portals.ajuntament.gava.cat/scdirectorimunicipal/app.html?id=3905,http://continguts.intra.gavaciutat.net/documents/76203/2268237/comerc.png
Forns i Pastisseries Núria - 1,"carrer mare de déu de montserrat, 36, 08850 Gavà",936621776 660088421,plapanuria1@yahoo.es,,Alimentació (quotidià alimentari),41.3051,2.001171,"(41.3051, 2.001171)",http://portals.ajuntament.gava.cat/scdirectorimunicipal/app.html?id=3923,http://continguts.intra.gavaciutat.net/documents/76203/2268237/comerc.png
"Talleres Montserrat Gavà, SL","carrer mare de déu de montserrat, 5, 08850 Gavà",936623104 653893634,talleresmontserrat@gmail.com,,Serveis,41.303387,2.002047,"(41.303387, 2.002047)",http://portals.ajuntament.gava.cat/scdirectorimunicipal/app.html?id=4227,http://continguts.intra.gavaciutat.net/documents/76203/2268237/comerc.png
"Pire Telecomunicacions, SL","carrer mare de déu de montserrat, 59, 08850 Gavà",936628726 ,,http://www.pire.es,Serveis,41.305866,2.00077,"(41.305866, 2.00077)",http://portals.ajuntament.gava.cat/scdirectorimunicipal/app.html?id=4132,http://continguts.intra.gavaciutat.net/documents/76203/2268237/comerc.png
Perruqueria Centre,"carrer mare de déu de montserrat, 59, 08850 Gavà",936382908 639791181,antonia-a.estilista@hotmail.com,,Serveis,41.305866,2.00077,"(41.305866, 2.00077)",http://portals.ajuntament.gava.cat/scdirectorimunicipal/app.html?id=4102,http://continguts.intra.gavaciutat.net/documents/76203/2268237/comerc.png
PA,"carrer mare de déu de montserrat, 60, 08850 Gavà",936620545 653503842,,,Alimentació (quotidià alimentari),41.306984,2.000338,"(41.306984, 2.000338)",http://portals.ajuntament.gava.cat/scdirectorimunicipal/app.html?id=4933,http://continguts.intra.gavaciutat.net/documents/76203/2268237/comerc.png
Forn Martapà,"carrer mare de déu de montserrat, 60, 08850 Gavà",646966702 646966702,forn.martapa@gmail.com,,Alimentació (quotidià alimentari),41.306984,2.000338,"(41.306984, 2.000338)",http://portals.ajuntament.gava.cat/scdirectorimunicipal/app.html?id=5124,http://continguts.intra.gavaciutat.net/documents/76203/2268237/comerc.png
María Carmen Navarret Castellano,"carrer mare de déu de montserrat, 60, 08850 Gavà", ,,,Alimentació (quotidià alimentari),41.306984,2.000338,"(41.306984, 2.000338)",http://portals.ajuntament.gava.cat/scdirectorimunicipal/app.html?id=5363,http://continguts.intra.gavaciutat.net/documents/76203/2268237/comerc.png
Rentat Expres,"carrer mare de déu de montserrat, 69, 08850 Gavà", 639230743,,,Serveis,41.30617,2.000619,"(41.30617, 2.000619)",http://portals.ajuntament.gava.cat/scdirectorimunicipal/app.html?id=4147,http://continguts.intra.gavaciutat.net/documents/76203/2268237/comerc.png
Gimnasio Kyodai,"carrer mare de déu de montserrat, 70-72, 08850 Gavà",936382992 680643294,,,Serveis,41.307247,2.00017,"(41.307247, 2.00017)",http://portals.ajuntament.gava.cat/scdirectorimunicipal/app.html?id=4306,http://continguts.intra.gavaciutat.net/documents/76203/2268237/comerc.png
Serigrafia y Rotulaciones Pugès,"carrer mare de déu de montserrat, 77, 08850 Gavà",936381607 665813386,,,Serveis,41.306503,2.000459,"(41.306503, 2.000459)",http://portals.ajuntament.gava.cat/scdirectorimunicipal/app.html?id=4204,http://continguts.intra.gavaciutat.net/documents/76203/2268237/comerc.png
Condis Supermercats 0603,"carrer mare de déu de montserrat, 84, 08850 Gavà",936621390 ,,,Alimentació (quotidià alimentari),41.307613,1.999987,"(41.307613, 1.999987)",http://portals.ajuntament.gava.cat/scdirectorimunicipal/app.html?id=5119,http://continguts.intra.gavaciutat.net/documents/76203/2268237/comerc.png
Full Image Informàtica,"carrer mare de déu de montserrat, 87, 08850 Gavà",936621995 636976880,,http://www.fullimage.net,Serveis,41.307117,2.000155,"(41.307117, 2.000155)",http://portals.ajuntament.gava.cat/scdirectorimunicipal/app.html?id=3936,http://continguts.intra.gavaciutat.net/documents/76203/2268237/comerc.png
Perruqueria Figueras - Alarcón,"carrer mare de déu de montserrat, 87, 08850 Gavà",936628501 607334075,estivi1970@hotmail.com,,Serveis,41.307117,2.000155,"(41.307117, 2.000155)",http://portals.ajuntament.gava.cat/scdirectorimunicipal/app.html?id=3906,http://continguts.intra.gavaciutat.net/documents/76203/2268237/comerc.png
La Casa de los Arreglos,"carrer mare de déu de montserrat, 87, 08850 Gavà",936335998 670627455,,,Equipament de la persona,41.307117,2.000155,"(41.307117, 2.000155)",http://portals.ajuntament.gava.cat/scdirectorimunicipal/app.html?id=4932,http://continguts.intra.gavaciutat.net/documents/76203/2268237/comerc.png
Institut de bellesa M. Antònia,"carrer mare de déu de montserrat, 87, 08850 Gavà",936624428 ,,,Salut i cosmètica  (quotidià no alimentari),41.307117,2.000155,"(41.307117, 2.000155)",http://portals.ajuntament.gava.cat/scdirectorimunicipal/app.html?id=5100,http://continguts.intra.gavaciutat.net/documents/76203/2268237/comerc.png
Assessoria Assegurances Condeminas,"carrer mare de déu dels dolors, 12, 08850 Gavà",936381231 ,condeminas@telefonica.net,,Serveis,41.306313,1.9971,"(41.306313, 1.9971)",http://portals.ajuntament.gava.cat/scdirectorimunicipal/app.html?id=3733,http://continguts.intra.gavaciutat.net/documents/76203/2268237/comerc.png
Maribel Perruqueria,"carrer mare de déu dels dolors, 18, 08850 Gavà",936629304 ,,,Serveis,41.306515,1.997018,"(41.306515, 1.997018)",http://portals.ajuntament.gava.cat/scdirectorimunicipal/app.html?id=4028,http://continguts.intra.gavaciutat.net/documents/76203/2268237/comerc.png
Jennifer Sevillano Fisioterapèuta i Osteìpata,"carrer mediterrani, 38, 08850 Gavà", ,,,Serveis,41.309254,1.994139,"(41.309254, 1.994139)",http://portals.ajuntament.gava.cat/scdirectorimunicipal/app.html?id=4326,http://continguts.intra.gavaciutat.net/documents/76203/2268237/comerc.png
"Talleres Montflorit, SL","carrer montflorit, 1, 08850 Gavà",936624949 619857654,,,Serveis,41.299248,2.002242,"(41.299248, 2.002242)",http://portals.ajuntament.gava.cat/scdirectorimunicipal/app.html?id=4226,http://continguts.intra.gavaciutat.net/documents/76203/2268237/comerc.png
Schlecker,"carrer montflorit, 106, 08850 Gavà", 647325883,,,Alimentació (quotidià alimentari),41.305122,1.999411,"(41.305122, 1.999411)",http://portals.ajuntament.gava.cat/scdirectorimunicipal/app.html?id=4909,http://continguts.intra.gavaciutat.net/documents/76203/2268237/comerc.png
Massada,"carrer montflorit, 108, 08850 Gavà",936389238 ,sandrap.gava@gmail.com,http://www.massadagava.es,Salut i cosmètica  (quotidià no alimentari),41.305874,1.999042,"(41.305874, 1.999042)",http://portals.ajuntament.gava.cat/scdirectorimunicipal/app.html?id=1441,http://continguts.intra.gavaciutat.net/documents/76203/2268237/comerc.png
